Time,Roll_X(deg),Pitch_Y(deg),Yaw_Z(deg),Altitude(m)
14:57:10.543,25.95,-66.5,75.5,0.0
14:57:10.546,25.95,-66.5,75.5,34.44
14:57:10.673,25.95,-66.5,75.5,34.44
14:57:10.684,25.95,-66.5,75.5,34.44
14:57:10.787,25.95,-66.5,75.5,34.44
14:57:10.801,25.95,-66.5,75.5,34.44
14:57:10.899,25.95,-66.5,75.5,34.44
14:57:10.912,25.95,-66.5,75.5,34.44
14:57:11.010,25.95,-66.5,75.5,34.44
14:57:11.022,25.95,-66.5,75.5,34.44
14:57:11.126,25.95,-66.5,75.5,34.44
14:57:11.139,25.95,-66.5,75.5,34.44
14:57:11.245,0.0,0.0,0.0,0.0
14:57:11.256,0.0,0.0,0.0,0.0
14:57:11.357,0.0,0.0,0.0,0.0
14:57:11.368,0.0,0.0,0.0,0.0
14:57:11.478,0.0,0.0,0.0,0.0
14:57:11.488,0.0,0.0,0.0,0.0
14:57:11.597,0.0,0.0,0.0,0.0
14:57:11.607,0.0,0.0,0.0,0.0
14:57:11.706,0.0,0.0,0.0,0.0
14:57:11.715,0.0,0.0,0.0,0.0
14:57:11.815,0.0,0.0,0.0,0.0
14:57:11.827,0.0,0.0,0.0,0.0
14:57:11.931,0.0,0.0,0.0,0.0
14:57:11.942,0.0,0.0,0.0,0.0
14:57:12.048,0.0,0.0,0.0,0.0
14:57:12.059,0.0,0.0,0.0,0.0
14:57:12.159,0.0,0.0,0.0,0.0
14:57:12.172,0.0,0.0,0.0,0.0
14:57:12.280,0.0,0.0,0.0,0.0
14:57:12.297,0.0,0.0,0.0,0.0
14:57:12.391,0.0,0.0,0.0,0.0
14:57:12.404,0.0,0.0,0.0,0.0
14:57:12.505,0.0,0.0,0.0,0.0
14:57:12.519,0.0,0.0,0.0,0.0
14:57:12.621,0.0,0.0,0.0,0.0
14:57:12.633,0.0,0.0,0.0,0.0
14:57:12.734,0.0,0.0,0.0,0.0
14:57:12.742,0.0,0.0,0.0,0.0
14:57:12.848,0.0,0.0,0.0,0.0
14:57:12.859,0.0,0.0,0.0,0.0
14:57:12.959,0.0,0.0,0.0,0.0
14:57:12.970,0.0,0.0,0.0,0.0
14:57:13.081,0.0,0.0,0.0,0.0
14:57:13.091,0.0,0.0,0.0,0.0
14:57:13.192,0.0,0.0,0.0,0.0
14:57:13.202,0.0,0.0,0.0,0.0
14:57:13.308,0.0,0.0,0.0,0.0
14:57:13.322,0.0,0.0,0.0,0.0
14:57:13.431,-0.12,-0.05,-4.72,0.0
14:57:13.442,-0.12,-0.05,-4.72,0.07
14:57:13.545,-0.12,-0.05,-4.72,0.07
14:57:13.557,-0.12,-0.05,-4.72,0.07
14:57:13.661,-0.12,-0.05,-4.72,0.07
14:57:13.672,-0.12,-0.05,-4.72,0.07
14:57:13.786,-0.12,-0.05,-4.72,0.07
14:57:13.797,-0.12,-0.05,-4.72,0.07
14:57:13.868,-0.12,-0.05,-4.72,0.07
14:57:13.899,-0.12,-0.05,-4.72,0.07
14:57:14.012,-0.12,-0.05,-4.72,0.07
14:57:14.025,-0.12,-0.05,-4.72,0.07
14:57:14.124,-0.12,-0.05,-4.72,0.07
14:57:14.138,-0.12,-0.05,-4.72,0.07
14:57:14.239,-0.12,-0.05,-4.72,0.07
14:57:14.251,-0.12,-0.05,-4.72,0.07
14:57:14.349,-0.36,-0.13,-5.94,0.07
14:57:14.361,-0.36,-0.13,-5.94,0.11
14:57:14.464,-0.36,-0.13,-5.94,0.11
14:57:14.474,-0.36,-0.13,-5.94,0.11
14:57:14.575,-0.36,-0.13,-5.94,0.11
14:57:14.589,-0.36,-0.13,-5.94,0.11
14:57:14.691,-0.36,-0.13,-5.94,0.11
14:57:14.705,-0.36,-0.13,-5.94,0.11
14:57:14.811,-0.36,-0.13,-5.94,0.11
14:57:14.821,-0.36,-0.13,-5.94,0.11
14:57:14.928,-0.12,0.05,-7.05,0.11
14:57:14.938,-0.12,0.05,-7.05,0.12
14:57:15.044,-0.12,0.05,-7.05,0.12
14:57:15.052,-0.12,0.05,-7.05,0.12
14:57:15.155,-0.06,0.01,-7.47,0.12
14:57:15.165,-0.06,0.01,-7.47,0.13
14:57:15.244,-0.06,0.01,-7.47,0.13
14:57:15.277,-0.06,0.01,-7.47,0.13
14:57:15.395,0.03,-0.02,-7.92,0.13
14:57:15.403,0.03,-0.02,-7.92,0.13
14:57:15.505,0.03,-0.02,-7.92,0.13
14:57:15.514,0.03,-0.02,-7.92,0.13
14:57:15.614,0.03,-0.02,-7.92,0.13
14:57:15.625,0.03,-0.02,-7.92,0.13
14:57:15.727,0.03,-0.02,-7.92,0.13
14:57:15.736,0.03,-0.02,-7.92,0.13
14:57:15.838,0.03,-0.02,-7.92,0.13
14:57:15.849,0.03,-0.02,-7.92,0.13
14:57:15.932,-0.01,0.04,-8.76,0.13
14:57:15.967,-0.01,0.04,-8.76,0.13
14:57:16.072,-0.01,0.04,-8.76,0.13
14:57:16.084,-0.01,0.04,-8.76,0.13
14:57:16.193,-0.01,0.04,-8.76,0.13
14:57:16.203,-0.01,0.04,-8.76,0.13
14:57:16.302,-0.01,0.04,-8.76,0.13
14:57:16.313,-0.01,0.04,-8.76,0.13
14:57:16.417,-0.01,0.04,-8.76,0.13
14:57:16.426,-0.01,0.04,-8.76,0.13
14:57:16.530,-0.08,0.01,-9.59,0.13
14:57:16.539,-0.08,0.01,-9.59,0.14
14:57:16.646,-0.08,0.01,-9.59,0.14
14:57:16.655,-0.08,0.01,-9.59,0.14
14:57:16.760,-0.06,-0.05,-9.97,0.14
14:57:16.769,-0.06,-0.05,-9.97,0.14
14:57:16.881,-0.06,-0.05,-9.97,0.14
14:57:16.891,-0.06,-0.05,-9.97,0.14
14:57:16.990,-0.06,-0.05,-9.97,0.14
14:57:16.999,-0.06,-0.05,-9.97,0.14
14:57:17.101,-0.16,-0.09,-10.42,0.14
14:57:17.108,-0.16,-0.09,-10.42,0.14
14:57:17.213,-0.16,-0.09,-10.42,0.14
14:57:17.222,-0.16,-0.09,-10.42,0.14
14:57:17.329,-0.16,-0.09,-10.42,0.14
14:57:17.338,-0.16,-0.09,-10.42,0.14
14:57:17.447,-0.16,-0.09,-10.42,0.14
14:57:17.457,-0.16,-0.09,-10.42,0.14
14:57:17.561,-0.02,0.06,-11.25,0.14
14:57:17.570,-0.02,0.06,-11.25,0.15
14:57:17.680,-0.02,0.06,-11.25,0.15
14:57:17.690,-0.02,0.06,-11.25,0.15
14:57:17.767,-0.02,0.06,-11.25,0.15
14:57:17.806,-0.02,0.06,-11.25,0.15
14:57:17.910,-0.25,-0.08,-11.58,0.15
14:57:17.920,-0.25,-0.08,-11.58,0.14
14:57:17.997,-0.25,-0.08,-11.58,0.14
14:57:18.000,-0.25,-0.08,-11.58,0.14
14:57:18.111,-0.25,-0.08,-11.58,0.14
14:57:18.114,-0.25,-0.08,-11.58,0.14
14:57:18.226,-0.25,-0.08,-11.58,0.14
14:57:18.229,-0.25,-0.08,-11.58,0.14
14:57:18.341,-0.25,-0.08,-11.58,0.14
14:57:18.344,-0.25,-0.08,-11.58,0.14
14:57:18.455,-0.04,0.0,-12.66,0.14
14:57:18.458,-0.04,0.0,-12.66,0.14
14:57:18.570,-0.04,0.0,-12.66,0.14
14:57:18.573,-0.04,0.0,-12.66,0.14
14:57:18.685,-0.04,0.0,-12.66,0.14
14:57:18.688,-0.04,0.0,-12.66,0.14
14:57:18.799,-0.04,0.0,-12.66,0.14
14:57:18.802,-0.04,0.0,-12.66,0.14
14:57:18.914,-0.04,0.0,-12.66,0.14
14:57:18.917,-0.04,0.0,-12.66,0.14
14:57:19.029,-0.04,0.0,-12.66,0.14
14:57:19.032,-0.04,0.0,-12.66,0.14
14:57:19.143,-0.04,0.0,-12.66,0.14
14:57:19.146,-0.04,0.0,-12.66,0.14
14:57:19.258,-0.04,0.0,-12.66,0.14
14:57:19.261,-0.04,0.0,-12.66,0.14
14:57:19.373,-0.04,0.0,-12.66,0.14
14:57:19.375,-0.04,0.0,-12.66,0.14
14:57:19.487,-0.04,0.0,-12.66,0.14
14:57:19.490,-0.04,0.0,-12.66,0.14
14:57:19.602,-0.04,0.0,-12.66,0.14
14:57:19.605,-0.04,0.0,-12.66,0.14
14:57:19.717,-0.04,0.0,-12.66,0.14
14:57:19.719,-0.04,0.0,-12.66,0.14
14:57:19.831,-0.04,0.0,-12.66,0.14
14:57:19.834,-0.04,0.0,-12.66,0.14
14:57:19.946,-0.06,0.0,-14.98,0.14
14:57:19.949,-0.06,0.0,-14.98,0.12
14:57:20.061,-0.06,0.0,-14.98,0.12
14:57:20.064,-0.06,0.0,-14.98,0.12
14:57:20.177,-0.06,0.0,-14.98,0.12
14:57:20.180,-0.06,0.0,-14.98,0.12
14:57:20.290,-0.06,0.0,-14.98,0.12
14:57:20.293,-0.06,0.0,-14.98,0.12
14:57:20.405,-0.06,0.0,-14.98,0.12
14:57:20.407,-0.06,0.0,-14.98,0.12
14:57:20.519,-0.06,0.0,-14.98,0.12
14:57:20.522,-0.06,0.0,-14.98,0.12
14:57:20.637,-0.06,0.0,-14.98,0.12
14:57:20.641,-0.06,0.0,-14.98,0.12
14:57:20.749,-0.02,0.01,-16.26,0.12
14:57:20.751,-0.02,0.01,-16.26,0.11
14:57:20.879,-0.02,0.01,-16.26,0.11
14:57:20.887,-0.02,0.01,-16.26,0.11
14:57:20.982,0.0,0.01,-16.65,0.11
14:57:20.986,0.0,0.01,-16.65,0.11
14:57:21.094,0.0,0.01,-16.65,0.11
14:57:21.096,0.0,0.01,-16.65,0.11
14:57:21.209,0.0,0.01,-16.65,0.11
14:57:21.216,0.0,0.01,-16.65,0.11
14:57:21.323,0.0,0.01,-16.65,0.11
14:57:21.326,0.0,0.01,-16.65,0.11
14:57:21.438,0.0,0.01,-16.65,0.11
14:57:21.440,0.0,0.01,-16.65,0.11
14:57:21.551,0.0,0.01,-16.65,0.11
14:57:21.554,0.0,0.01,-16.65,0.11
14:57:21.666,0.0,0.01,-16.65,0.11
14:57:21.669,0.0,0.01,-16.65,0.11
14:57:21.781,0.0,0.01,-16.65,0.11
14:57:21.783,0.0,0.01,-16.65,0.11
14:57:21.895,0.0,0.01,-16.65,0.11
14:57:21.898,0.0,0.01,-16.65,0.11
14:57:22.012,0.0,0.01,-16.65,0.11
14:57:22.016,0.0,0.01,-16.65,0.11
14:57:22.129,0.0,0.01,-16.65,0.11
14:57:22.136,0.0,0.01,-16.65,0.11
14:57:22.243,0.0,0.01,-16.65,0.11
14:57:22.251,0.0,0.01,-16.65,0.11
14:57:22.359,0.0,0.01,-16.65,0.11
14:57:22.368,0.0,0.01,-16.65,0.11
14:57:22.474,0.0,0.01,-16.65,0.11
14:57:22.483,0.0,0.01,-16.65,0.11
14:57:22.588,0.0,0.01,-16.65,0.11
14:57:22.598,0.0,0.01,-16.65,0.11
14:57:22.702,0.0,0.01,-16.65,0.11
14:57:22.711,0.0,0.01,-16.65,0.11
14:57:22.815,0.0,0.01,-16.65,0.11
14:57:22.822,0.0,0.01,-16.65,0.11
14:57:22.929,0.0,0.01,-16.65,0.11
14:57:22.933,0.0,0.01,-16.65,0.11
14:57:23.043,0.0,0.01,-16.65,0.11
14:57:23.046,0.0,0.01,-16.65,0.11
14:57:23.158,0.0,0.01,-16.65,0.11
14:57:23.161,0.0,0.01,-16.65,0.11
14:57:23.271,0.0,0.01,-16.65,0.11
14:57:23.274,0.0,0.01,-16.65,0.11
14:57:23.386,0.0,0.01,-16.65,0.11
14:57:23.389,0.0,0.01,-16.65,0.11
14:57:23.501,0.0,0.01,-16.65,0.11
14:57:23.503,0.0,0.01,-16.65,0.11
14:57:23.615,0.0,0.01,-16.65,0.11
14:57:23.619,0.0,0.01,-16.65,0.11
14:57:23.730,0.0,0.01,-16.65,0.11
14:57:23.733,0.0,0.01,-16.65,0.11
14:57:23.845,-0.13,-0.06,-20.84,0.11
14:57:23.848,-0.13,-0.06,-20.84,-0.03
14:57:23.959,-0.1,0.0,-21.04,-0.03
14:57:23.962,-0.1,0.0,-21.04,-0.04
14:57:24.075,-0.1,0.0,-21.04,-0.04
14:57:24.079,-0.1,0.0,-21.04,-0.04
14:57:24.191,-0.1,0.0,-21.04,-0.04
14:57:24.196,-0.1,0.0,-21.04,-0.04
14:57:24.305,-0.1,0.0,-21.04,-0.04
14:57:24.309,-0.1,0.0,-21.04,-0.04
14:57:24.419,-0.1,0.0,-21.04,-0.04
14:57:24.423,-0.1,0.0,-21.04,-0.04
14:57:24.537,-0.14,0.0,-21.9,-0.04
14:57:24.541,-0.14,0.0,-21.9,-0.08
14:57:24.651,-0.14,0.0,-21.9,-0.08
14:57:24.657,-0.14,0.0,-21.9,-0.08
14:57:24.767,-0.14,0.0,-21.9,-0.08
14:57:24.771,-0.14,0.0,-21.9,-0.08
14:57:24.886,-0.14,0.0,-21.9,-0.08
14:57:24.891,-0.14,0.0,-21.9,-0.08
14:57:25.004,-0.14,0.0,-21.9,-0.08
14:57:25.012,-0.14,0.0,-21.9,-0.08
14:57:25.119,0.0,0.02,-22.92,-0.08
14:57:25.129,0.0,0.02,-22.92,-0.12
14:57:25.232,0.0,0.02,-22.92,-0.12
14:57:25.243,0.0,0.02,-22.92,-0.12
14:57:25.346,0.0,0.02,-22.92,-0.12
14:57:25.354,0.0,0.02,-22.92,-0.12
14:57:25.457,0.0,0.02,-22.92,-0.12
14:57:25.463,0.0,0.02,-22.92,-0.12
14:57:25.571,0.0,0.02,-22.92,-0.12
14:57:25.579,0.0,0.02,-22.92,-0.12
14:57:25.687,0.0,0.03,-23.81,-0.12
14:57:25.695,0.0,0.03,-23.81,-0.15
14:57:25.804,0.0,0.03,-23.81,-0.15
14:57:25.810,0.0,0.03,-23.81,-0.15
14:57:25.921,0.01,-0.01,-24.18,-0.15
14:57:25.929,0.01,-0.01,-24.18,-0.17
14:57:26.034,0.01,-0.01,-24.18,-0.17
14:57:26.042,0.01,-0.01,-24.18,-0.17
14:57:26.154,0.01,-0.01,-24.18,-0.17
14:57:26.163,0.01,-0.01,-24.18,-0.17
14:57:26.271,0.01,-0.01,-24.18,-0.17
14:57:26.279,0.01,-0.01,-24.18,-0.17
14:57:26.369,-0.16,-0.11,-24.74,-0.17
14:57:26.394,-0.16,-0.11,-24.74,-0.19
14:57:26.484,-0.16,-0.11,-24.74,-0.19
14:57:26.508,-0.16,-0.11,-24.74,-0.19
14:57:26.601,-0.16,-0.11,-24.74,-0.19
14:57:26.624,-0.16,-0.11,-24.74,-0.19
14:57:26.712,-0.16,-0.11,-24.74,-0.19
14:57:26.735,-0.16,-0.11,-24.74,-0.19
14:57:26.843,-0.16,-0.11,-24.74,-0.19
14:57:26.856,-0.16,-0.11,-24.74,-0.19
14:57:26.956,-0.16,-0.11,-24.74,-0.19
14:57:26.965,-0.16,-0.11,-24.74,-0.19
14:57:27.071,-0.16,-0.11,-24.74,-0.19
14:57:27.080,-0.16,-0.11,-24.74,-0.19
14:57:27.173,0.08,0.03,-26.21,-0.19
14:57:27.197,0.08,0.03,-26.21,-0.24
14:57:27.289,0.08,0.03,-26.21,-0.24
14:57:27.309,0.08,0.03,-26.21,-0.24
14:57:27.403,-0.23,0.01,-26.28,-0.24
14:57:27.426,-0.23,0.01,-26.28,-0.25
14:57:27.520,-0.25,-0.04,-26.43,-0.25
14:57:27.526,-0.25,-0.04,-26.43,-0.26
14:57:27.634,-0.25,-0.04,-26.43,-0.26
14:57:27.640,-0.25,-0.04,-26.43,-0.26
14:57:27.756,-0.25,-0.04,-26.43,-0.26
14:57:27.761,-0.25,-0.04,-26.43,-0.26
14:57:27.873,-0.1,-0.05,-27.11,-0.26
14:57:27.887,-0.1,-0.05,-27.11,-0.27
14:57:27.981,-0.23,-0.04,-27.16,-0.27
14:57:27.988,-0.23,-0.04,-27.16,-0.28
14:57:28.099,-0.23,-0.04,-27.16,-0.28
14:57:28.104,-0.23,-0.04,-27.16,-0.28
14:57:28.210,-0.23,-0.04,-27.16,-0.28
14:57:28.218,-0.23,-0.04,-27.16,-0.28
14:57:28.330,-0.08,-0.03,-27.85,-0.28
14:57:28.338,-0.08,-0.03,-27.85,-0.3
14:57:28.449,-0.08,-0.03,-27.85,-0.3
14:57:28.458,-0.08,-0.03,-27.85,-0.3
14:57:28.576,-0.08,-0.03,-27.85,-0.3
14:57:28.585,-0.08,-0.03,-27.85,-0.3
14:57:28.690,-0.08,-0.03,-27.85,-0.3
14:57:28.699,-0.08,-0.03,-27.85,-0.3
14:57:28.796,-0.08,-0.03,-27.85,-0.3
14:57:28.809,-0.08,-0.03,-27.85,-0.3
14:57:28.914,-0.1,-0.04,-28.71,-0.3
14:57:28.923,-0.1,-0.04,-28.71,-0.33
14:57:29.023,-0.1,-0.04,-28.71,-0.33
14:57:29.036,-0.1,-0.04,-28.71,-0.33
14:57:29.143,-0.1,-0.04,-28.71,-0.33
14:57:29.154,-0.1,-0.04,-28.71,-0.33
14:57:29.261,-0.08,0.07,-29.27,-0.33
14:57:29.272,-0.08,0.07,-29.27,-0.33
14:57:29.349,-0.08,0.07,-29.27,-0.33
14:57:29.387,-0.08,0.07,-29.27,-0.33
14:57:29.464,-0.08,0.07,-29.27,-0.33
14:57:29.498,-0.08,0.07,-29.27,-0.33
14:57:29.578,-0.08,0.07,-29.27,-0.33
14:57:29.617,-0.08,0.07,-29.27,-0.33
14:57:29.693,-0.08,0.07,-29.27,-0.33
14:57:29.696,-0.08,0.07,-29.27,-0.33
14:57:29.808,-0.11,-0.04,-30.14,-0.33
14:57:29.810,-0.11,-0.04,-30.14,-0.35
14:57:29.923,-0.11,-0.04,-30.14,-0.35
14:57:29.925,-0.11,-0.04,-30.14,-0.35
14:57:30.037,-0.11,-0.04,-30.14,-0.35
14:57:30.040,-0.11,-0.04,-30.14,-0.35
14:57:30.152,-0.11,-0.04,-30.14,-0.35
14:57:30.155,-0.11,-0.04,-30.14,-0.35
14:57:30.267,-0.11,-0.04,-30.14,-0.35
14:57:30.269,-0.11,-0.04,-30.14,-0.35
14:57:30.381,-0.11,-0.04,-30.14,-0.35
14:57:30.384,-0.11,-0.04,-30.14,-0.35
14:57:30.496,-0.25,-0.08,-31.08,-0.35
14:57:30.499,-0.25,-0.08,-31.08,-0.37
14:57:30.611,-0.25,-0.08,-31.08,-0.37
14:57:30.614,-0.25,-0.08,-31.08,-0.37
14:57:30.725,-0.25,-0.08,-31.08,-0.37
14:57:30.728,-0.25,-0.08,-31.08,-0.37
14:57:30.840,-0.25,-0.08,-31.08,-0.37
14:57:30.843,-0.25,-0.08,-31.08,-0.37
14:57:30.955,-0.25,-0.08,-31.08,-0.37
14:57:30.957,-0.25,-0.08,-31.08,-0.37
14:57:31.069,-0.37,-0.1,-31.87,-0.37
14:57:31.072,-0.37,-0.1,-31.87,-0.38
14:57:31.184,-0.37,-0.1,-31.87,-0.38
14:57:31.187,-0.37,-0.1,-31.87,-0.38
14:57:31.299,-0.37,-0.1,-31.87,-0.38
14:57:31.302,-0.37,-0.1,-31.87,-0.38
14:57:31.413,-0.37,-0.1,-31.87,-0.38
14:57:31.416,-0.37,-0.1,-31.87,-0.38
14:57:31.528,-0.07,0.02,-32.86,-0.38
14:57:31.531,-0.07,0.02,-32.86,-0.39
14:57:31.643,-0.07,0.02,-32.86,-0.39
14:57:31.646,-0.07,0.02,-32.86,-0.39
14:57:31.757,-0.07,0.02,-32.86,-0.39
14:57:31.760,-0.07,0.02,-32.86,-0.39
14:57:31.872,-0.07,0.02,-32.86,-0.39
14:57:31.875,-0.07,0.02,-32.86,-0.39
14:57:31.987,-0.07,0.02,-32.86,-0.39
14:57:31.989,-0.07,0.02,-32.86,-0.39
14:57:32.101,-0.06,0.03,-33.76,-0.39
14:57:32.105,-0.06,0.03,-33.76,-0.4
14:57:32.216,-0.06,0.03,-33.76,-0.4
14:57:32.219,-0.06,0.03,-33.76,-0.4
14:57:32.331,-0.06,0.03,-33.76,-0.4
14:57:32.333,-0.06,0.03,-33.76,-0.4
14:57:32.445,-0.06,0.03,-33.76,-0.4
14:57:32.448,-0.06,0.03,-33.76,-0.4
14:57:32.560,-0.06,0.03,-33.76,-0.4
14:57:32.563,-0.06,0.03,-33.76,-0.4
14:57:32.675,-0.06,0.03,-33.76,-0.4
14:57:32.677,-0.06,0.03,-33.76,-0.4
14:57:32.789,-0.06,0.03,-33.76,-0.4
14:57:32.792,-0.06,0.03,-33.76,-0.4
14:57:32.904,-0.06,0.03,-33.76,-0.4
14:57:32.907,-0.06,0.03,-33.76,-0.4
14:57:33.023,-0.06,0.03,-33.76,-0.4
14:57:33.027,-0.06,0.03,-33.76,-0.4
14:57:33.138,-0.06,0.03,-33.76,-0.4
14:57:33.145,-0.06,0.03,-33.76,-0.4
14:57:33.255,-0.06,0.03,-33.76,-0.4
14:57:33.264,-0.06,0.03,-33.76,-0.4
14:57:33.366,-0.06,0.03,-33.76,-0.4
14:57:33.374,-0.06,0.03,-33.76,-0.4
14:57:33.482,-0.06,0.03,-33.76,-0.4
14:57:33.489,-0.06,0.03,-33.76,-0.4
14:57:33.594,-0.06,0.03,-33.76,-0.4
14:57:33.601,-0.06,0.03,-33.76,-0.4
14:57:33.711,-0.06,0.03,-33.76,-0.4
14:57:33.719,-0.06,0.03,-33.76,-0.4
14:57:33.825,-0.06,0.03,-33.76,-0.4
14:57:33.832,-0.06,0.03,-33.76,-0.4
14:57:33.946,-0.06,0.03,-33.76,-0.4
14:57:33.954,-0.06,0.03,-33.76,-0.4
14:57:34.059,-0.06,0.03,-33.76,-0.4
14:57:34.066,-0.06,0.03,-33.76,-0.4
14:57:34.174,-0.06,0.03,-33.76,-0.4
14:57:34.181,-0.06,0.03,-33.76,-0.4
14:57:34.285,-0.06,0.03,-33.76,-0.4
14:57:34.293,-0.06,0.03,-33.76,-0.4
14:57:34.399,-0.06,0.03,-33.76,-0.4
14:57:34.405,-0.06,0.03,-33.76,-0.4
14:57:34.515,-0.06,0.03,-33.76,-0.4
14:57:34.520,-0.06,0.03,-33.76,-0.4
14:57:34.630,0.02,0.0,-37.63,-0.4
14:57:34.639,0.02,0.0,-37.63,-0.38
14:57:34.744,-0.19,0.01,-37.61,-0.38
14:57:34.753,-0.19,0.01,-37.61,-0.38
14:57:34.858,-0.19,0.01,-37.61,-0.38
14:57:34.866,-0.19,0.01,-37.61,-0.38
14:57:34.979,-0.19,0.01,-37.61,-0.38
14:57:34.988,-0.19,0.01,-37.61,-0.38
14:57:35.090,-0.19,0.01,-37.61,-0.38
14:57:35.100,-0.19,0.01,-37.61,-0.38
14:57:35.210,-0.19,0.01,-37.61,-0.38
14:57:35.220,-0.19,0.01,-37.61,-0.38
14:57:35.332,-0.31,-0.12,-38.39,-0.38
14:57:35.341,-0.31,-0.12,-38.39,-0.35
14:57:35.457,-0.31,-0.12,-38.39,-0.35
14:57:35.464,-0.31,-0.12,-38.39,-0.35
14:57:35.547,-0.02,-0.03,-39.03,-0.35
14:57:35.554,-0.02,-0.03,-39.03,-0.35
14:57:35.667,-0.23,0.02,-39.01,-0.35
14:57:35.676,-0.23,0.02,-39.01,-0.34
14:57:35.783,-0.23,0.02,-39.01,-0.34
14:57:35.790,-0.23,0.02,-39.01,-0.34
14:57:35.892,-0.23,0.02,-39.01,-0.34
14:57:35.899,-0.23,0.02,-39.01,-0.34
14:57:36.005,-0.23,0.02,-39.01,-0.34
14:57:36.011,-0.23,0.02,-39.01,-0.34
14:57:36.120,-0.23,0.02,-39.01,-0.34
14:57:36.127,-0.23,0.02,-39.01,-0.34
14:57:36.233,-0.23,0.02,-39.01,-0.34
14:57:36.240,-0.23,0.02,-39.01,-0.34
14:57:36.349,-0.23,0.02,-39.01,-0.34
14:57:36.354,-0.23,0.02,-39.01,-0.34
14:57:36.463,0.0,0.02,-40.46,-0.34
14:57:36.471,0.0,0.02,-40.46,-0.33
14:57:36.577,-0.21,0.05,-40.45,-0.33
14:57:36.585,-0.21,0.05,-40.45,-0.33
14:57:36.694,-0.21,0.05,-40.45,-0.33
14:57:36.705,-0.21,0.05,-40.45,-0.33
14:57:36.810,-0.21,0.05,-40.45,-0.33
14:57:36.819,-0.21,0.05,-40.45,-0.33
14:57:36.931,-0.1,0.04,-41.09,-0.33
14:57:36.940,-0.1,0.04,-41.09,-0.32
14:57:37.037,-0.1,0.04,-41.09,-0.32
14:57:37.047,-0.1,0.04,-41.09,-0.32
14:57:37.158,-0.08,-0.01,-41.47,-0.32
14:57:37.165,-0.08,-0.01,-41.47,-0.32
14:57:37.267,-0.08,-0.01,-41.47,-0.32
14:57:37.275,-0.08,-0.01,-41.47,-0.32
14:57:37.382,-0.12,0.05,-41.78,-0.32
14:57:37.391,-0.12,0.05,-41.78,-0.32
14:57:37.500,-0.12,0.05,-41.78,-0.32
14:57:37.510,-0.12,0.05,-41.78,-0.32
14:57:37.621,-0.07,-0.02,-42.19,-0.32
14:57:37.630,-0.07,-0.02,-42.19,-0.32
14:57:37.735,-0.07,-0.02,-42.19,-0.32
14:57:37.744,-0.07,-0.02,-42.19,-0.32
14:57:37.852,-0.01,0.07,-42.61,-0.32
14:57:37.861,-0.01,0.07,-42.61,-0.32
14:57:37.968,-0.01,0.07,-42.61,-0.32
14:57:37.978,-0.01,0.07,-42.61,-0.32
14:57:38.065,-0.01,0.07,-42.61,-0.32
14:57:38.085,-0.01,0.07,-42.61,-0.32
14:57:38.181,-0.11,0.03,-43.06,-0.32
14:57:38.203,-0.11,0.03,-43.06,-0.33
14:57:38.300,-0.11,0.03,-43.06,-0.33
14:57:38.305,-0.11,0.03,-43.06,-0.33
14:57:38.416,-0.11,0.03,-43.06,-0.33
14:57:38.426,-0.11,0.03,-43.06,-0.33
14:57:38.529,-0.11,0.03,-43.06,-0.33
14:57:38.536,-0.11,0.03,-43.06,-0.33
14:57:38.643,-0.12,0.08,-43.77,-0.33
14:57:38.657,-0.12,0.08,-43.77,-0.32
14:57:38.755,-0.12,0.08,-43.77,-0.32
14:57:38.768,-0.12,0.08,-43.77,-0.32
14:57:38.874,-0.1,0.07,-44.15,-0.32
14:57:38.882,-0.1,0.07,-44.15,-0.32
14:57:38.995,-0.1,0.07,-44.15,-0.32
14:57:39.000,-0.1,0.07,-44.15,-0.32
14:57:39.113,-0.1,0.07,-44.15,-0.32
14:57:39.121,-0.1,0.07,-44.15,-0.32
14:57:39.222,0.08,-0.1,-44.85,-0.32
14:57:39.235,0.08,-0.1,-44.85,-0.32
14:57:39.335,0.08,-0.1,-44.85,-0.32
14:57:39.355,0.08,-0.1,-44.85,-0.32
14:57:39.460,0.8,1.79,-45.26,-0.32
14:57:39.470,0.8,1.79,-45.26,-0.32
14:57:39.572,0.8,1.79,-45.26,-0.32
14:57:39.584,0.8,1.79,-45.26,-0.32
14:57:39.698,0.8,1.79,-45.26,-0.32
14:57:39.706,0.8,1.79,-45.26,-0.32
14:57:39.808,0.85,4.75,-39.51,-0.32
14:57:39.817,0.85,4.75,-39.51,-0.31
14:57:39.925,0.85,4.75,-39.51,-0.31
14:57:39.941,0.85,4.75,-39.51,-0.31
14:57:40.014,0.85,4.75,-39.51,-0.31
14:57:40.051,0.85,4.75,-39.51,-0.31
14:57:40.158,0.85,4.75,-39.51,-0.31
14:57:40.166,0.85,4.75,-39.51,-0.31
14:57:40.266,9.11,-4.66,-44.38,-0.31
14:57:40.278,9.11,-4.66,-44.38,-0.31
14:57:40.372,11.56,-5.31,-46.59,-0.31
14:57:40.383,11.56,-5.31,-46.59,-0.3
14:57:40.494,11.56,-5.31,-46.59,-0.3
14:57:40.507,11.56,-5.31,-46.59,-0.3
14:57:40.617,11.56,-5.31,-46.59,-0.3
14:57:40.627,11.56,-5.31,-46.59,-0.3
14:57:40.726,11.56,-5.31,-46.59,-0.3
14:57:40.736,11.56,-5.31,-46.59,-0.3
14:57:40.847,11.56,-5.31,-46.59,-0.3
14:57:40.856,11.56,-5.31,-46.59,-0.3
14:57:40.958,11.56,-5.31,-46.59,-0.3
14:57:40.971,11.56,-5.31,-46.59,-0.3
14:57:41.046,11.56,-5.31,-46.59,-0.3
14:57:41.075,11.56,-5.31,-46.59,-0.3
14:57:41.161,11.56,-5.31,-46.59,-0.3
14:57:41.164,11.56,-5.31,-46.59,-0.3
14:57:41.276,11.56,-5.31,-46.59,-0.3
14:57:41.279,11.56,-5.31,-46.59,-0.3
14:57:41.390,11.56,-5.31,-46.59,-0.3
14:57:41.393,11.56,-5.31,-46.59,-0.3
14:57:41.505,11.56,-5.31,-46.59,-0.3
14:57:41.509,11.56,-5.31,-46.59,-0.3
14:57:41.620,11.56,-5.31,-46.59,-0.3
14:57:41.623,11.56,-5.31,-46.59,-0.3
14:57:41.734,11.56,-5.31,-46.59,-0.3
14:57:41.737,11.56,-5.31,-46.59,-0.3
14:57:41.849,38.09,6.38,-51.04,-0.3
14:57:41.852,38.09,6.38,-51.04,-0.27
14:57:41.964,38.09,6.38,-51.04,-0.27
14:57:41.966,38.09,6.38,-51.04,-0.27
14:57:42.078,38.09,6.38,-51.04,-0.27
14:57:42.081,38.09,6.38,-51.04,-0.27
14:57:42.193,38.09,6.38,-51.04,-0.27
14:57:42.196,38.09,6.38,-51.04,-0.27
14:57:42.308,38.09,6.38,-51.04,-0.27
14:57:42.311,38.09,6.38,-51.04,-0.27
14:57:42.423,38.09,6.38,-51.04,-0.27
14:57:42.425,38.09,6.38,-51.04,-0.27
14:57:42.537,38.09,6.38,-51.04,-0.27
14:57:42.540,38.09,6.38,-51.04,-0.27
14:57:42.652,28.35,5.96,-52.61,-0.27
14:57:42.655,28.35,5.96,-52.61,-0.25
14:57:42.766,28.35,5.96,-52.61,-0.25
14:57:42.769,28.35,5.96,-52.61,-0.25
14:57:42.881,28.35,5.96,-52.61,-0.25
14:57:42.884,28.35,5.96,-52.61,-0.25
14:57:42.996,8.78,2.26,-48.82,-0.25
14:57:42.999,8.78,2.26,-48.82,-0.24
14:57:43.111,8.78,2.26,-48.82,-0.24
14:57:43.114,8.78,2.26,-48.82,-0.24
14:57:43.225,8.78,2.26,-48.82,-0.24
14:57:43.228,8.78,2.26,-48.82,-0.24
14:57:43.340,8.78,2.26,-48.82,-0.24
14:57:43.343,8.78,2.26,-48.82,-0.24
14:57:43.455,8.09,1.82,-50.19,-0.24
14:57:43.458,8.09,1.82,-50.19,-0.23
14:57:43.570,8.09,1.82,-50.19,-0.23
14:57:43.572,8.09,1.82,-50.19,-0.23
14:57:43.686,8.09,1.82,-50.19,-0.23
14:57:43.689,8.09,1.82,-50.19,-0.23
14:57:43.801,8.09,1.82,-50.19,-0.23
14:57:43.806,8.09,1.82,-50.19,-0.23
14:57:43.914,8.09,1.82,-50.19,-0.23
14:57:43.916,8.09,1.82,-50.19,-0.23
14:57:44.029,8.09,1.82,-50.19,-0.23
14:57:44.033,8.09,1.82,-50.19,-0.23
14:57:44.143,8.09,1.82,-50.19,-0.23
14:57:44.146,8.09,1.82,-50.19,-0.23
14:57:44.258,8.09,1.82,-50.19,-0.23
14:57:44.263,8.09,1.82,-50.19,-0.23
14:57:44.372,8.09,1.82,-50.19,-0.23
14:57:44.375,8.09,1.82,-50.19,-0.23
14:57:44.487,8.09,1.82,-50.19,-0.23
14:57:44.490,8.09,1.82,-50.19,-0.23
14:57:44.603,8.09,1.82,-50.19,-0.23
14:57:44.606,8.09,1.82,-50.19,-0.23
14:57:44.716,8.09,1.82,-50.19,-0.23
14:57:44.719,8.09,1.82,-50.19,-0.23
14:57:44.831,8.09,1.82,-50.19,-0.23
14:57:44.834,8.09,1.82,-50.19,-0.23
14:57:44.946,8.09,1.82,-50.19,-0.23
14:57:44.948,8.09,1.82,-50.19,-0.23
14:57:45.060,8.09,1.82,-50.19,-0.23
14:57:45.063,8.09,1.82,-50.19,-0.23
14:57:45.175,8.09,1.82,-50.19,-0.23
14:57:45.178,8.09,1.82,-50.19,-0.23
14:57:45.290,8.09,1.82,-50.19,-0.23
14:57:45.293,8.09,1.82,-50.19,-0.23
14:57:45.404,8.09,1.82,-50.19,-0.23
14:57:45.407,8.09,1.82,-50.19,-0.23
14:57:45.519,8.09,1.82,-50.19,-0.23
14:57:45.522,8.09,1.82,-50.19,-0.23
14:57:45.634,30.73,5.95,-55.61,-0.23
14:57:45.636,30.73,5.95,-55.61,-0.21
14:57:45.749,30.73,5.95,-55.61,-0.21
14:57:45.751,30.73,5.95,-55.61,-0.21
14:57:45.863,18.69,4.31,-58.09,-0.21
14:57:45.866,18.69,4.31,-58.09,-0.22
14:57:45.978,18.69,4.31,-58.09,-0.22
14:57:45.980,18.69,4.31,-58.09,-0.22
14:57:46.092,18.69,4.31,-58.09,-0.22
14:57:46.095,18.69,4.31,-58.09,-0.22
14:57:46.207,18.69,4.31,-58.09,-0.22
14:57:46.210,18.69,4.31,-58.09,-0.22
14:57:46.322,18.69,4.31,-58.09,-0.22
14:57:46.324,18.69,4.31,-58.09,-0.22
14:57:46.437,-0.63,1.15,-54.07,-0.22
14:57:46.439,-0.63,1.15,-54.07,-0.25
14:57:46.551,-0.63,1.15,-54.07,-0.25
14:57:46.554,-0.63,1.15,-54.07,-0.25
14:57:46.666,-0.63,1.15,-54.07,-0.25
14:57:46.669,-0.63,1.15,-54.07,-0.25
14:57:46.781,-0.63,1.15,-54.07,-0.25
14:57:46.783,-0.63,1.15,-54.07,-0.25
14:57:46.895,-0.63,1.15,-54.07,-0.25
14:57:46.898,-0.63,1.15,-54.07,-0.25
14:57:47.010,-0.63,1.15,-54.07,-0.25
14:57:47.013,-0.63,1.15,-54.07,-0.25
14:57:47.125,-0.63,1.15,-54.07,-0.25
14:57:47.127,-0.63,1.15,-54.07,-0.25
14:57:47.240,-0.63,1.15,-54.07,-0.25
14:57:47.244,-0.63,1.15,-54.07,-0.25
14:57:47.358,-0.63,1.15,-54.07,-0.25
14:57:47.364,-0.63,1.15,-54.07,-0.25
14:57:47.472,-50.96,-3.94,-37.76,-0.25
14:57:47.479,-50.96,-3.94,-37.76,-0.31
14:57:47.589,-50.96,-3.94,-37.76,-0.31
14:57:47.597,-50.96,-3.94,-37.76,-0.31
14:57:47.704,-50.96,-3.94,-37.76,-0.31
14:57:47.711,-50.96,-3.94,-37.76,-0.31
14:57:47.824,-50.96,-3.94,-37.76,-0.31
14:57:47.833,-50.96,-3.94,-37.76,-0.31
14:57:47.946,-52.83,-6.54,-40.36,-0.31
14:57:47.954,-52.83,-6.54,-40.36,-0.34
14:57:48.060,-52.83,-6.54,-40.36,-0.34
14:57:48.069,-52.83,-6.54,-40.36,-0.34
14:57:48.171,-52.83,-6.54,-40.36,-0.34
14:57:48.179,-52.83,-6.54,-40.36,-0.34
14:57:48.288,-52.83,-6.54,-40.36,-0.34
14:57:48.297,-52.83,-6.54,-40.36,-0.34
14:57:48.401,-62.86,-6.54,-34.77,-0.34
14:57:48.412,-62.86,-6.54,-34.77,-0.37
14:57:48.517,-62.86,-6.54,-34.77,-0.37
14:57:48.526,-62.86,-6.54,-34.77,-0.37
14:57:48.617,-62.86,-6.54,-34.77,-0.37
14:57:48.642,-62.86,-6.54,-34.77,-0.37
14:57:48.733,-62.86,-6.54,-34.77,-0.37
14:57:48.757,-62.86,-6.54,-34.77,-0.37
14:57:48.853,-62.86,-6.54,-34.77,-0.37
14:57:48.859,-62.86,-6.54,-34.77,-0.37
14:57:48.972,-62.86,-6.54,-34.77,-0.37
14:57:48.977,-62.86,-6.54,-34.77,-0.37
14:57:49.082,-68.4,-7.64,-34.1,-0.37
14:57:49.088,-68.4,-7.64,-34.1,-0.4
14:57:49.198,-66.7,-7.44,-35.47,-0.4
14:57:49.220,-66.7,-7.44,-35.47,-0.41
14:57:49.310,-66.7,-7.44,-35.47,-0.41
14:57:49.321,-66.7,-7.44,-35.47,-0.41
14:57:49.432,-66.7,-7.44,-35.47,-0.41
14:57:49.442,-66.7,-7.44,-35.47,-0.41
14:57:49.545,-66.7,-7.44,-35.47,-0.41
14:57:49.553,-66.7,-7.44,-35.47,-0.41
14:57:49.656,-59.69,-7.57,-36.37,-0.41
14:57:49.665,-59.69,-7.57,-36.37,-0.43
14:57:49.769,-59.69,-7.57,-36.37,-0.43
14:57:49.775,-59.69,-7.57,-36.37,-0.43
14:57:49.882,-59.69,-7.57,-36.37,-0.43
14:57:49.887,-59.69,-7.57,-36.37,-0.43
14:57:49.999,-59.69,-7.57,-36.37,-0.43
14:57:50.009,-59.69,-7.57,-36.37,-0.43
14:57:50.119,-59.69,-7.57,-36.37,-0.43
14:57:50.129,-59.69,-7.57,-36.37,-0.43
14:57:50.228,-28.15,-8.91,-44.63,-0.43
14:57:50.233,-28.15,-8.91,-44.63,-0.47
14:57:50.348,-28.15,-8.91,-44.63,-0.47
14:57:50.354,-28.15,-8.91,-44.63,-0.47
14:57:50.467,-28.15,-8.91,-44.63,-0.47
14:57:50.475,-28.15,-8.91,-44.63,-0.47
14:57:50.578,-15.57,-7.52,-47.98,-0.47
14:57:50.586,-15.57,-7.52,-47.98,-0.48
14:57:50.693,-15.57,-7.52,-47.98,-0.48
14:57:50.699,-15.57,-7.52,-47.98,-0.48
14:57:50.807,-15.57,-7.52,-47.98,-0.48
14:57:50.816,-15.57,-7.52,-47.98,-0.48
14:57:50.923,-15.57,-7.52,-47.98,-0.48
14:57:50.932,-15.57,-7.52,-47.98,-0.48
14:57:51.052,-15.57,-7.52,-47.98,-0.48
14:57:51.060,-15.57,-7.52,-47.98,-0.48
14:57:51.158,-15.57,-7.52,-47.98,-0.48
14:57:51.169,-15.57,-7.52,-47.98,-0.48
14:57:51.271,-2.04,-2.2,-58.06,-0.48
14:57:51.281,-2.04,-2.2,-58.06,-0.51
14:57:51.385,-2.04,-2.2,-58.06,-0.51
14:57:51.395,-2.04,-2.2,-58.06,-0.51
14:57:51.505,-2.04,-2.2,-58.06,-0.51
14:57:51.514,-2.04,-2.2,-58.06,-0.51
14:57:51.624,-2.04,-2.2,-58.06,-0.51
14:57:51.633,-2.04,-2.2,-58.06,-0.51
14:57:51.712,-2.04,-2.2,-58.06,-0.51
14:57:51.746,-2.04,-2.2,-58.06,-0.51
14:57:51.826,-9.14,0.71,-63.34,-0.51
14:57:51.829,-9.14,0.71,-63.34,-0.51
14:57:51.941,-9.14,0.71,-63.34,-0.51
14:57:51.944,-9.14,0.71,-63.34,-0.51
14:57:52.056,-9.14,0.71,-63.34,-0.51
14:57:52.058,-9.14,0.71,-63.34,-0.51
14:57:52.170,-9.14,0.71,-63.34,-0.51
14:57:52.173,-9.14,0.71,-63.34,-0.51
14:57:52.285,-9.14,0.71,-63.34,-0.51
14:57:52.288,-9.14,0.71,-63.34,-0.51
14:57:52.400,-9.14,0.71,-63.34,-0.51
14:57:52.403,-9.14,0.71,-63.34,-0.51
14:57:52.514,-9.14,0.71,-63.34,-0.51
14:57:52.517,-9.14,0.71,-63.34,-0.51
14:57:52.629,-46.73,-1.76,-52.25,-0.51
14:57:52.632,-46.73,-1.76,-52.25,-0.48
14:57:52.744,-46.73,-1.76,-52.25,-0.48
14:57:52.746,-46.73,-1.76,-52.25,-0.48
14:57:52.858,-46.73,-1.76,-52.25,-0.48
14:57:52.861,-46.73,-1.76,-52.25,-0.48
14:57:52.973,-46.73,-1.76,-52.25,-0.48
14:57:52.976,-46.73,-1.76,-52.25,-0.48
14:57:53.088,-46.73,-1.76,-52.25,-0.48
14:57:53.091,-46.73,-1.76,-52.25,-0.48
14:57:53.202,-46.73,-1.76,-52.25,-0.48
14:57:53.205,-46.73,-1.76,-52.25,-0.48
14:57:53.317,-46.73,-1.76,-52.25,-0.48
14:57:53.320,-46.73,-1.76,-52.25,-0.48
14:57:53.432,-47.14,-7.0,-47.71,-0.48
14:57:53.434,-47.14,-7.0,-47.71,-0.46
14:57:53.546,-47.14,-7.0,-47.71,-0.46
14:57:53.549,-47.14,-7.0,-47.71,-0.46
14:57:53.661,-47.14,-7.0,-47.71,-0.46
14:57:53.690,-47.14,-7.0,-47.71,-0.46
14:57:53.803,-47.14,-7.0,-47.71,-0.46
14:57:53.814,-47.14,-7.0,-47.71,-0.46
14:57:53.890,-47.14,-7.0,-47.71,-0.46
14:57:53.893,-47.14,-7.0,-47.71,-0.46
14:57:54.005,-11.3,-7.09,-56.29,-0.46
14:57:54.008,-11.3,-7.09,-56.29,-0.44
14:57:54.120,-7.65,-6.81,-57.76,-0.44
14:57:54.122,-7.65,-6.81,-57.76,-0.43
14:57:54.235,-7.65,-6.81,-57.76,-0.43
14:57:54.238,-7.65,-6.81,-57.76,-0.43
14:57:54.350,-5.35,-6.63,-59.6,-0.43
14:57:54.353,-5.35,-6.63,-59.6,-0.43
14:57:54.464,-5.35,-6.63,-59.6,-0.43
14:57:54.467,-5.35,-6.63,-59.6,-0.43
14:57:54.579,-5.35,-6.63,-59.6,-0.43
14:57:54.582,-5.35,-6.63,-59.6,-0.43
14:57:54.693,-5.35,-6.63,-59.6,-0.43
14:57:54.696,-5.35,-6.63,-59.6,-0.43
14:57:54.808,-5.35,-6.63,-59.6,-0.43
14:57:54.811,-5.35,-6.63,-59.6,-0.43
14:57:54.923,-5.35,-6.63,-59.6,-0.43
14:57:54.925,-5.35,-6.63,-59.6,-0.43
14:57:55.037,-5.35,-6.63,-59.6,-0.43
14:57:55.040,-5.35,-6.63,-59.6,-0.43
14:57:55.152,-5.35,-6.63,-59.6,-0.43
14:57:55.155,-5.35,-6.63,-59.6,-0.43
14:57:55.267,-5.35,-6.63,-59.6,-0.43
14:57:55.270,-5.35,-6.63,-59.6,-0.43
14:57:55.381,-5.35,-6.63,-59.6,-0.43
14:57:55.384,-5.35,-6.63,-59.6,-0.43
14:57:55.496,-5.35,-6.63,-59.6,-0.43
14:57:55.499,-5.35,-6.63,-59.6,-0.43
14:57:55.611,-5.35,-6.63,-59.6,-0.43
14:57:55.614,-5.35,-6.63,-59.6,-0.43
14:57:55.726,-5.35,-6.63,-59.6,-0.43
14:57:55.728,-5.35,-6.63,-59.6,-0.43
14:57:55.840,-5.35,-6.63,-59.6,-0.43
14:57:55.843,-5.35,-6.63,-59.6,-0.43
14:57:55.955,-5.35,-6.63,-59.6,-0.43
14:57:55.958,-5.35,-6.63,-59.6,-0.43
14:57:56.070,-5.35,-6.63,-59.6,-0.43
14:57:56.073,-5.35,-6.63,-59.6,-0.43
14:57:56.184,-5.35,-6.63,-59.6,-0.43
14:57:56.187,-5.35,-6.63,-59.6,-0.43
14:57:56.299,-5.35,-6.63,-59.6,-0.43
14:57:56.301,-5.35,-6.63,-59.6,-0.43
14:57:56.414,-5.35,-6.63,-59.6,-0.43
14:57:56.417,-5.35,-6.63,-59.6,-0.43
14:57:56.528,-5.35,-6.63,-59.6,-0.43
14:57:56.531,-5.35,-6.63,-59.6,-0.43
14:57:56.643,114.77,-8.66,163.95,-0.43
14:57:56.646,114.77,-8.66,163.95,-0.37
14:57:56.758,114.77,-8.66,163.95,-0.37
14:57:56.761,114.77,-8.66,163.95,-0.37
14:57:56.872,112.05,-9.6,165.78,-0.37
14:57:56.875,112.05,-9.6,165.78,-0.38
14:57:56.987,112.05,-9.6,165.78,-0.38
14:57:56.990,112.05,-9.6,165.78,-0.38
14:57:57.104,112.05,-9.6,165.78,-0.38
14:57:57.109,112.05,-9.6,165.78,-0.38
14:57:57.220,112.05,-9.6,165.78,-0.38
14:57:57.223,112.05,-9.6,165.78,-0.38
14:57:57.333,70.96,-11.11,213.0,-0.38
14:57:57.337,70.96,-11.11,213.0,-0.37
14:57:57.447,54.88,-10.55,229.87,-0.37
14:57:57.451,54.88,-10.55,229.87,-0.37
14:57:57.564,38.82,-10.32,245.72,-0.37
14:57:57.568,38.82,-10.32,245.72,-0.37
14:57:57.689,38.82,-10.32,245.72,-0.37
14:57:57.697,38.82,-10.32,245.72,-0.37
14:57:57.793,38.82,-10.32,245.72,-0.37
14:57:57.797,38.82,-10.32,245.72,-0.37
14:57:57.906,38.82,-10.32,245.72,-0.37
14:57:57.909,38.82,-10.32,245.72,-0.37
14:57:58.023,3.95,-1.76,283.24,-0.37
14:57:58.029,3.95,-1.76,283.24,-0.38
14:57:58.140,3.95,-1.76,283.24,-0.38
14:57:58.149,3.95,-1.76,283.24,-0.38
14:57:58.262,3.95,-1.76,283.24,-0.38
14:57:58.270,3.95,-1.76,283.24,-0.38
14:57:58.373,3.95,-1.76,283.24,-0.38
14:57:58.380,3.95,-1.76,283.24,-0.38
14:57:58.492,3.95,-1.76,283.24,-0.38
14:57:58.500,3.95,-1.76,283.24,-0.38
14:57:58.606,3.95,-1.76,283.24,-0.38
14:57:58.615,3.95,-1.76,283.24,-0.38
14:57:58.722,3.95,-1.76,283.24,-0.38
14:57:58.731,3.95,-1.76,283.24,-0.38
14:57:58.823,-5.17,4.24,-66.31,-0.38
14:57:58.848,-5.17,4.24,-66.31,-0.39
14:57:58.954,-5.17,4.24,-66.31,-0.39
14:57:58.963,-5.17,4.24,-66.31,-0.39
14:57:59.054,-4.87,4.32,-66.62,-0.39
14:57:59.081,-4.87,4.32,-66.62,-0.39
14:57:59.172,-4.18,3.4,-67.73,-0.39
14:57:59.178,-4.18,3.4,-67.73,-0.39
14:57:59.285,-4.18,3.4,-67.73,-0.39
14:57:59.309,-4.18,3.4,-67.73,-0.39
14:57:59.402,-0.67,0.8,-72.26,-0.39
14:57:59.424,-0.67,0.8,-72.26,-0.39
14:57:59.515,-0.67,0.8,-72.26,-0.39
14:57:59.520,-0.67,0.8,-72.26,-0.39
14:57:59.631,-0.67,0.8,-72.26,-0.39
14:57:59.639,-0.67,0.8,-72.26,-0.39
14:57:59.751,-0.67,0.8,-72.26,-0.39
14:57:59.760,-0.67,0.8,-72.26,-0.39
14:57:59.873,-0.67,0.8,-72.26,-0.39
14:57:59.883,-0.67,0.8,-72.26,-0.39
14:57:59.986,29.09,-10.89,253.97,-0.39
14:57:59.996,29.09,-10.89,253.97,-0.38
14:58:00.101,29.09,-10.89,253.97,-0.38
14:58:00.111,29.09,-10.89,253.97,-0.38
14:58:00.214,29.09,-10.89,253.97,-0.38
14:58:00.222,29.09,-10.89,253.97,-0.38
14:58:00.324,29.09,-10.89,253.97,-0.38
14:58:00.333,29.09,-10.89,253.97,-0.38
14:58:00.437,84.17,-12.02,195.27,-0.38
14:58:00.444,84.17,-12.02,195.27,-0.36
14:58:00.554,93.11,-10.41,185.35,-0.36
14:58:00.562,93.11,-10.41,185.35,-0.36
14:58:00.665,93.11,-10.41,185.35,-0.36
14:58:00.673,93.11,-10.41,185.35,-0.36
14:58:00.782,93.11,-10.41,185.35,-0.36
14:58:00.791,93.11,-10.41,185.35,-0.36
14:58:00.905,93.11,-10.41,185.35,-0.36
14:58:00.913,93.11,-10.41,185.35,-0.36
14:58:01.016,101.19,-8.47,173.73,-0.36
14:58:01.025,101.19,-8.47,173.73,-0.34
14:58:01.137,101.19,-8.47,173.73,-0.34
14:58:01.145,101.19,-8.47,173.73,-0.34
14:58:01.260,99.63,-9.78,174.56,-0.34
14:58:01.268,99.63,-9.78,174.56,-0.33
14:58:01.345,99.63,-9.78,174.56,-0.33
14:58:01.380,99.63,-9.78,174.56,-0.33
14:58:01.488,93.49,-10.93,180.12,-0.33
14:58:01.498,93.49,-10.93,180.12,-0.33
14:58:01.602,93.49,-10.93,180.12,-0.33
14:58:01.612,93.49,-10.93,180.12,-0.33
14:58:01.716,86.18,-11.54,186.66,-0.33
14:58:01.727,86.18,-11.54,186.66,-0.32
14:58:01.829,86.18,-11.54,186.66,-0.32
14:58:01.838,86.18,-11.54,186.66,-0.32
14:58:01.942,86.18,-11.54,186.66,-0.32
14:58:01.951,86.18,-11.54,186.66,-0.32
14:58:02.060,86.18,-11.54,186.66,-0.32
14:58:02.070,86.18,-11.54,186.66,-0.32
14:58:02.148,45.65,-11.0,229.8,-0.32
14:58:02.181,45.65,-11.0,229.8,-0.31
14:58:02.295,45.65,-11.0,229.8,-0.31
14:58:02.303,45.65,-11.0,229.8,-0.31
14:58:02.377,45.65,-11.0,229.8,-0.31
14:58:02.410,45.65,-11.0,229.8,-0.31
14:58:02.492,45.65,-11.0,229.8,-0.31
14:58:02.495,45.65,-11.0,229.8,-0.31
14:58:02.607,2.41,-0.09,275.34,-0.31
14:58:02.609,2.41,-0.09,275.34,-0.3
14:58:02.721,-2.55,2.37,281.44,-0.3
14:58:02.724,-2.55,2.37,281.44,-0.3
14:58:02.836,-2.55,2.37,281.44,-0.3
14:58:02.839,-2.55,2.37,281.44,-0.3
14:58:02.951,-2.55,2.37,281.44,-0.3
14:58:02.954,-2.55,2.37,281.44,-0.3
14:58:03.065,-2.55,2.37,281.44,-0.3
14:58:03.068,-2.55,2.37,281.44,-0.3
14:58:03.180,-2.55,2.37,281.44,-0.3
14:58:03.183,-2.55,2.37,281.44,-0.3
14:58:03.295,-2.55,2.37,281.44,-0.3
14:58:03.297,-2.55,2.37,281.44,-0.3
14:58:03.409,-2.55,2.37,281.44,-0.3
14:58:03.412,-2.55,2.37,281.44,-0.3
14:58:03.524,-2.82,8.52,284.18,-0.3
14:58:03.527,-2.82,8.52,284.18,-0.29
14:58:03.639,-2.82,8.52,284.18,-0.29
14:58:03.641,-2.82,8.52,284.18,-0.29
14:58:03.754,-2.82,8.52,284.18,-0.29
14:58:03.757,-2.82,8.52,284.18,-0.29
14:58:03.868,-2.82,8.52,284.18,-0.29
14:58:03.871,-2.82,8.52,284.18,-0.29
14:58:03.983,-7.06,17.39,-73.39,-0.29
14:58:03.986,-7.06,17.39,-73.39,-0.28
14:58:04.098,-7.06,17.39,-73.39,-0.28
14:58:04.100,-7.06,17.39,-73.39,-0.28
14:58:04.213,-7.8,24.38,-71.53,-0.28
14:58:04.215,-7.8,24.38,-71.53,-0.27
14:58:04.327,-7.8,24.38,-71.53,-0.27
14:58:04.330,-7.8,24.38,-71.53,-0.27
14:58:04.442,-7.8,24.38,-71.53,-0.27
14:58:04.444,-7.8,24.38,-71.53,-0.27
14:58:04.556,-7.8,24.38,-71.53,-0.27
14:58:04.559,-7.8,24.38,-71.53,-0.27
14:58:04.671,-8.35,27.61,-68.0,-0.27
14:58:04.674,-8.35,27.61,-68.0,-0.26
14:58:04.786,-8.35,27.61,-68.0,-0.26
14:58:04.789,-8.35,27.61,-68.0,-0.26
14:58:04.901,-8.35,27.61,-68.0,-0.26
14:58:04.904,-8.35,27.61,-68.0,-0.26
14:58:05.015,-8.35,27.61,-68.0,-0.26
14:58:05.018,-8.35,27.61,-68.0,-0.26
14:58:05.130,-8.35,27.61,-68.0,-0.26
14:58:05.133,-8.35,27.61,-68.0,-0.26
14:58:05.248,-8.35,27.61,-68.0,-0.26
14:58:05.252,-8.35,27.61,-68.0,-0.26
14:58:05.359,-8.35,27.61,-68.0,-0.26
14:58:05.362,-8.35,27.61,-68.0,-0.26
14:58:05.474,-8.35,27.61,-68.0,-0.26
14:58:05.477,-8.35,27.61,-68.0,-0.26
14:58:05.589,-8.35,27.61,-68.0,-0.26
14:58:05.591,-8.35,27.61,-68.0,-0.26
14:58:05.703,-8.35,27.61,-68.0,-0.26
14:58:05.706,-8.35,27.61,-68.0,-0.26
14:58:05.818,-8.35,27.61,-68.0,-0.26
14:58:05.822,-8.35,27.61,-68.0,-0.26
14:58:05.933,-8.35,27.61,-68.0,-0.26
14:58:05.935,-8.35,27.61,-68.0,-0.26
14:58:06.047,-8.35,27.61,-68.0,-0.26
14:58:06.050,-8.35,27.61,-68.0,-0.26
14:58:06.162,-8.35,27.61,-68.0,-0.26
14:58:06.165,-8.35,27.61,-68.0,-0.26
14:58:06.278,-8.35,27.61,-68.0,-0.26
14:58:06.282,-8.35,27.61,-68.0,-0.26
14:58:06.392,-8.35,27.61,-68.0,-0.26
14:58:06.395,-8.35,27.61,-68.0,-0.26
14:58:06.510,-8.35,27.61,-68.0,-0.26
14:58:06.514,-8.35,27.61,-68.0,-0.26
14:58:06.626,-8.35,27.61,-68.0,-0.26
14:58:06.635,-8.35,27.61,-68.0,-0.26
14:58:06.741,-8.35,27.61,-68.0,-0.26
14:58:06.749,-8.35,27.61,-68.0,-0.26
14:58:06.855,-8.35,27.61,-68.0,-0.26
14:58:06.863,-8.35,27.61,-68.0,-0.26
14:58:06.974,-8.35,27.61,-68.0,-0.26
14:58:06.981,-8.35,27.61,-68.0,-0.26
14:58:07.087,-8.35,27.61,-68.0,-0.26
14:58:07.096,-8.35,27.61,-68.0,-0.26
14:58:07.210,-8.35,27.61,-68.0,-0.26
14:58:07.219,-8.35,27.61,-68.0,-0.26
14:58:07.316,-8.35,27.61,-68.0,-0.26
14:58:07.327,-8.35,27.61,-68.0,-0.26
14:58:07.439,-8.35,27.61,-68.0,-0.26
14:58:07.447,-8.35,27.61,-68.0,-0.26
14:58:07.539,-8.35,27.61,-68.0,-0.26
14:58:07.563,-8.35,27.61,-68.0,-0.26
14:58:07.668,44.55,-9.87,238.98,-0.26
14:58:07.677,44.55,-9.87,238.98,-0.23
14:58:07.769,57.83,-11.01,225.1,-0.23
14:58:07.780,57.83,-11.01,225.1,-0.23
14:58:07.885,68.3,-11.93,213.01,-0.23
14:58:07.903,68.3,-11.93,213.01,-0.23
14:58:08.002,74.47,-12.56,204.41,-0.23
14:58:08.025,74.47,-12.56,204.41,-0.22
14:58:08.114,74.13,-12.87,202.41,-0.22
14:58:08.120,74.13,-12.87,202.41,-0.22
14:58:08.232,74.13,-12.87,202.41,-0.22
14:58:08.239,74.13,-12.87,202.41,-0.22
14:58:08.350,74.13,-12.87,202.41,-0.22
14:58:08.357,74.13,-12.87,202.41,-0.22
14:58:08.464,74.13,-12.87,202.41,-0.22
14:58:08.472,74.13,-12.87,202.41,-0.22
14:58:08.578,74.13,-12.87,202.41,-0.22
14:58:08.586,74.13,-12.87,202.41,-0.22
14:58:08.689,74.13,-12.87,202.41,-0.22
14:58:08.700,74.13,-12.87,202.41,-0.22
14:58:08.808,74.13,-12.87,202.41,-0.22
14:58:08.816,74.13,-12.87,202.41,-0.22
14:58:08.918,74.13,-12.87,202.41,-0.22
14:58:08.926,74.13,-12.87,202.41,-0.22
14:58:09.034,74.13,-12.87,202.41,-0.22
14:58:09.046,74.13,-12.87,202.41,-0.22
14:58:09.150,29.62,-11.85,241.96,-0.22
14:58:09.159,29.62,-11.85,241.96,-0.19
14:58:09.268,29.62,-11.85,241.96,-0.19
14:58:09.278,29.62,-11.85,241.96,-0.19
14:58:09.389,29.62,-11.85,241.96,-0.19
14:58:09.399,29.62,-11.85,241.96,-0.19
14:58:09.499,3.55,-4.28,268.98,-0.19
14:58:09.508,3.55,-4.28,268.98,-0.19
14:58:09.620,1.09,0.73,272.13,-0.19
14:58:09.629,1.09,0.73,272.13,-0.19
14:58:09.744,1.09,0.73,272.13,-0.19
14:58:09.754,1.09,0.73,272.13,-0.19
14:58:09.855,-1.4,8.81,275.8,-0.19
14:58:09.868,-1.4,8.81,275.8,-0.19
14:58:09.968,-1.4,8.81,275.8,-0.19
14:58:09.981,-1.4,8.81,275.8,-0.19
14:58:10.082,-2.95,13.13,276.03,-0.19
14:58:10.092,-2.95,13.13,276.03,-0.19
14:58:10.196,-2.95,13.13,276.03,-0.19
14:58:10.207,-2.95,13.13,276.03,-0.19
14:58:10.313,-3.36,15.06,275.27,-0.19
14:58:10.323,-3.36,15.06,275.27,-0.19
14:58:10.429,-3.36,15.06,275.27,-0.19
14:58:10.440,-3.36,15.06,275.27,-0.19
14:58:10.545,-3.36,15.06,275.27,-0.19
14:58:10.554,-3.36,15.06,275.27,-0.19
14:58:10.649,-3.36,15.06,275.27,-0.19
14:58:10.660,-3.36,15.06,275.27,-0.19
14:58:10.770,-3.36,15.06,275.27,-0.19
14:58:10.778,-3.36,15.06,275.27,-0.19
14:58:10.886,-3.36,15.06,275.27,-0.19
14:58:10.896,-3.36,15.06,275.27,-0.19
14:58:10.979,-3.36,15.06,275.27,-0.19
14:58:11.017,-3.36,15.06,275.27,-0.19
14:58:11.093,-3.36,15.06,275.27,-0.19
14:58:11.097,-3.36,15.06,275.27,-0.19
14:58:11.208,-3.36,15.06,275.27,-0.19
14:58:11.211,-3.36,15.06,275.27,-0.19
14:58:11.323,-3.36,15.06,275.27,-0.19
14:58:11.326,-3.36,15.06,275.27,-0.19
14:58:11.438,-3.36,15.06,275.27,-0.19
14:58:11.440,-3.36,15.06,275.27,-0.19
14:58:11.552,4.06,18.12,278.74,-0.19
14:58:11.555,4.06,18.12,278.74,-0.21
14:58:11.667,3.55,15.31,278.23,-0.21
14:58:11.670,3.55,15.31,278.23,-0.21
14:58:11.782,3.55,15.31,278.23,-0.21
14:58:11.784,3.55,15.31,278.23,-0.21
14:58:11.896,3.55,15.31,278.23,-0.21
14:58:11.899,3.55,15.31,278.23,-0.21
14:58:12.011,3.55,15.31,278.23,-0.21
14:58:12.014,3.55,15.31,278.23,-0.21
14:58:12.127,10.11,0.29,264.78,-0.21
14:58:12.136,10.11,0.29,264.78,-0.21
14:58:12.245,13.51,-2.81,259.32,-0.21
14:58:12.249,13.51,-2.81,259.32,-0.22
14:58:12.355,13.51,-2.81,259.32,-0.22
14:58:12.358,13.51,-2.81,259.32,-0.22
14:58:12.470,29.97,-9.51,241.3,-0.22
14:58:12.473,29.97,-9.51,241.3,-0.22
14:58:12.584,29.97,-9.51,241.3,-0.22
14:58:12.587,29.97,-9.51,241.3,-0.22
14:58:12.702,66.34,-12.21,205.36,-0.22
14:58:12.706,66.34,-12.21,205.36,-0.22
14:58:12.815,66.34,-12.21,205.36,-0.22
14:58:12.819,66.34,-12.21,205.36,-0.22
14:58:12.931,66.34,-12.21,205.36,-0.22
14:58:12.935,66.34,-12.21,205.36,-0.22
14:58:13.049,105.6,-12.42,164.64,-0.22
14:58:13.053,105.6,-12.42,164.64,-0.22
14:58:13.159,104.5,-13.31,165.7,-0.22
14:58:13.166,104.5,-13.31,165.7,-0.22
14:58:13.273,99.4,-14.16,171.32,-0.22
14:58:13.277,99.4,-14.16,171.32,-0.22
14:58:13.388,99.4,-14.16,171.32,-0.22
14:58:13.392,99.4,-14.16,171.32,-0.22
14:58:13.503,78.36,-15.79,190.79,-0.22
14:58:13.510,78.36,-15.79,190.79,-0.23
14:58:13.620,78.36,-15.79,190.79,-0.23
14:58:13.627,78.36,-15.79,190.79,-0.23
14:58:13.733,78.36,-15.79,190.79,-0.23
14:58:13.739,78.36,-15.79,190.79,-0.23
14:58:13.853,78.36,-15.79,190.79,-0.23
14:58:13.860,78.36,-15.79,190.79,-0.23
14:58:13.970,78.36,-15.79,190.79,-0.23
14:58:13.979,78.36,-15.79,190.79,-0.23
14:58:14.091,-23.94,-14.81,-73.91,-0.23
14:58:14.101,-23.94,-14.81,-73.91,-0.23
14:58:14.210,-23.94,-14.81,-73.91,-0.23
14:58:14.221,-23.94,-14.81,-73.91,-0.23
14:58:14.327,-70.72,-10.94,-20.67,-0.23
14:58:14.334,-70.72,-10.94,-20.67,-0.23
14:58:14.420,-86.17,-8.06,-4.11,-0.23
14:58:14.445,-86.17,-8.06,-4.11,-0.23
14:58:14.536,-86.17,-8.06,-4.11,-0.23
14:58:14.561,-86.17,-8.06,-4.11,-0.23
14:58:14.653,-86.17,-8.06,-4.11,-0.23
14:58:14.677,-86.17,-8.06,-4.11,-0.23
14:58:14.765,-86.17,-8.06,-4.11,-0.23
14:58:14.789,-86.17,-8.06,-4.11,-0.23
14:58:14.897,-86.17,-8.06,-4.11,-0.23
14:58:14.907,-86.17,-8.06,-4.11,-0.23
14:58:14.998,8.22,-12.16,253.63,-0.23
14:58:15.023,8.22,-12.16,253.63,-0.24
14:58:15.114,8.22,-12.16,253.63,-0.24
14:58:15.122,8.22,-12.16,253.63,-0.24
14:58:15.232,8.22,-12.16,253.63,-0.24
14:58:15.243,8.22,-12.16,253.63,-0.24
14:58:15.355,8.22,-12.16,253.63,-0.24
14:58:15.363,8.22,-12.16,253.63,-0.24
14:58:15.484,8.22,-12.16,253.63,-0.24
14:58:15.493,8.22,-12.16,253.63,-0.24
14:58:15.566,8.22,-12.16,253.63,-0.24
14:58:15.602,8.22,-12.16,253.63,-0.24
14:58:15.705,8.22,-12.16,253.63,-0.24
14:58:15.715,8.22,-12.16,253.63,-0.24
14:58:15.796,8.22,-12.16,253.63,-0.24
14:58:15.799,8.22,-12.16,253.63,-0.24
14:58:15.910,8.22,-12.16,253.63,-0.24
14:58:15.913,8.22,-12.16,253.63,-0.24
14:58:16.025,8.22,-12.16,253.63,-0.24
14:58:16.028,8.22,-12.16,253.63,-0.24
14:58:16.140,8.22,-12.16,253.63,-0.24
14:58:16.142,8.22,-12.16,253.63,-0.24
14:58:16.254,8.22,-12.16,253.63,-0.24
14:58:16.258,8.22,-12.16,253.63,-0.24
14:58:16.369,8.22,-12.16,253.63,-0.24
14:58:16.372,8.22,-12.16,253.63,-0.24
14:58:16.484,8.22,-12.16,253.63,-0.24
14:58:16.486,8.22,-12.16,253.63,-0.24
14:58:16.598,8.22,-12.16,253.63,-0.24
14:58:16.601,8.22,-12.16,253.63,-0.24
14:58:16.713,8.22,-12.16,253.63,-0.24
14:58:16.716,8.22,-12.16,253.63,-0.24
14:58:16.828,8.22,-12.16,253.63,-0.24
14:58:16.830,8.22,-12.16,253.63,-0.24
14:58:16.943,8.22,-12.16,253.63,-0.24
14:58:16.945,8.22,-12.16,253.63,-0.24
14:58:17.057,8.22,-12.16,253.63,-0.24
14:58:17.061,8.22,-12.16,253.63,-0.24
14:58:17.172,8.22,-12.16,253.63,-0.24
14:58:17.175,8.22,-12.16,253.63,-0.24
14:58:17.287,8.22,-12.16,253.63,-0.24
14:58:17.289,8.22,-12.16,253.63,-0.24
14:58:17.401,8.22,-12.16,253.63,-0.24
14:58:17.404,8.22,-12.16,253.63,-0.24
14:58:17.516,8.22,-12.16,253.63,-0.24
14:58:17.519,8.22,-12.16,253.63,-0.24
14:58:17.631,-25.96,61.52,104.87,-0.24
14:58:17.633,-25.96,61.52,104.87,-0.35
14:58:17.745,-25.96,61.52,104.87,-0.35
14:58:17.748,-25.96,61.52,104.87,-0.35
14:58:17.860,-25.96,61.52,104.87,-0.35
14:58:17.863,-25.96,61.52,104.87,-0.35
14:58:17.975,-25.95,57.82,105.11,-0.35
14:58:17.977,-25.95,57.82,105.11,-0.35
14:58:18.089,-25.95,57.82,105.11,-0.35
14:58:18.092,-25.95,57.82,105.11,-0.35
14:58:18.204,-25.95,57.82,105.11,-0.35
14:58:18.207,-25.95,57.82,105.11,-0.35
14:58:18.319,-25.95,54.15,105.3,-0.35
14:58:18.322,-25.95,54.15,105.3,-0.35
14:58:18.433,-25.95,54.15,105.3,-0.35
14:58:18.437,-25.95,54.15,105.3,-0.35
14:58:18.548,-25.95,54.15,105.3,-0.35
14:58:18.551,-25.95,54.15,105.3,-0.35
14:58:18.663,-25.95,54.15,105.3,-0.35
14:58:18.665,-25.95,54.15,105.3,-0.35
14:58:18.777,-25.92,49.32,105.49,-0.35
14:58:18.781,-25.92,49.32,105.49,-0.37
14:58:18.892,-25.92,49.32,105.49,-0.37
14:58:18.895,-25.92,49.32,105.49,-0.37
14:58:19.007,-25.92,49.32,105.49,-0.37
14:58:19.009,-25.92,49.32,105.49,-0.37
14:58:19.121,-25.92,49.32,105.49,-0.37
14:58:19.124,-25.92,49.32,105.49,-0.37
14:58:19.236,-25.92,49.32,105.49,-0.37
14:58:19.239,-25.92,49.32,105.49,-0.37
14:58:19.350,-25.92,49.32,105.49,-0.37
14:58:19.353,-25.92,49.32,105.49,-0.37
14:58:19.465,-25.92,49.32,105.49,-0.37
14:58:19.504,-25.92,49.32,105.49,-0.37
14:58:19.609,-25.92,49.32,105.49,-0.37
14:58:19.620,-25.92,49.32,105.49,-0.37
14:58:19.718,-25.92,49.32,105.49,-0.37
14:58:19.728,-25.92,49.32,105.49,-0.37
14:58:19.809,-25.92,49.32,105.49,-0.37
14:58:19.812,-25.92,49.32,105.49,-0.37
14:58:19.936,-25.92,49.32,105.49,-0.37
14:58:19.946,-25.92,49.32,105.49,-0.37
