Time,Roll_X(deg),Pitch_Y(deg),Yaw_Z(deg),Altitude(m)
15:41:08.264,25.87,-66.51,126.94,0.0
15:41:08.284,25.87,-66.51,126.94,33.2
15:41:08.391,25.87,-66.47,126.58,33.2
15:41:08.403,25.87,-66.47,126.58,33.2
15:41:08.500,25.87,-66.47,126.58,33.2
15:41:08.511,25.87,-66.47,126.58,33.2
15:41:08.613,25.99,-66.5,126.11,33.2
15:41:08.625,25.99,-66.5,126.11,33.2
15:41:08.729,25.91,-66.55,126.0,33.2
15:41:08.741,25.91,-66.55,126.0,33.2
15:41:08.848,25.81,-66.52,125.91,33.2
15:41:08.862,25.81,-66.52,125.91,33.21
15:41:08.963,25.81,-66.52,125.91,33.21
15:41:08.974,25.81,-66.52,125.91,33.21
15:41:09.082,25.88,-66.46,125.48,33.21
15:41:09.096,25.88,-66.46,125.48,33.2
15:41:09.199,25.88,-66.52,125.3,33.2
15:41:09.209,25.88,-66.52,125.3,33.2
15:41:09.322,25.88,-66.48,125.13,33.2
15:41:09.334,25.88,-66.48,125.13,33.2
15:41:09.430,25.95,-66.52,124.88,33.2
15:41:09.441,25.95,-66.52,124.88,33.2
15:41:09.545,25.82,-66.48,124.82,33.2
15:41:09.556,25.82,-66.48,124.82,33.2
15:41:09.665,25.82,-66.53,124.63,33.2
15:41:09.679,25.82,-66.53,124.63,33.2
15:41:09.784,0.05,0.06,-0.22,0.0
15:41:09.796,0.05,0.06,-0.22,0.0
15:41:09.900,0.05,0.06,-0.22,0.0
15:41:09.906,0.05,0.06,-0.22,0.0
15:41:09.984,0.02,0.01,-0.55,0.0
15:41:10.015,0.02,0.01,-0.55,0.0
15:41:10.099,0.07,0.06,-0.78,0.0
15:41:10.102,0.07,0.06,-0.78,-0.01
15:41:10.214,0.02,-0.01,-0.92,-0.01
15:41:10.217,0.02,-0.01,-0.92,-0.01
15:41:10.328,0.02,-0.01,-0.92,-0.01
15:41:10.332,0.02,-0.01,-0.92,-0.01
15:41:10.443,0.01,0.03,-1.27,-0.01
15:41:10.446,0.01,0.03,-1.27,-0.01
15:41:10.558,0.01,0.03,-1.27,-0.01
15:41:10.560,0.01,0.03,-1.27,-0.01
15:41:10.672,0.1,0.02,-1.72,-0.01
15:41:10.675,0.1,0.02,-1.72,-0.01
15:41:10.787,0.0,0.0,-1.81,-0.01
15:41:10.790,0.0,0.0,-1.81,-0.02
15:41:10.902,0.04,0.07,-2.02,-0.02
15:41:10.905,0.04,0.07,-2.02,-0.01
15:41:11.017,0.04,0.07,-2.02,-0.01
15:41:11.019,0.04,0.07,-2.02,-0.01
15:41:11.131,0.03,0.04,-2.38,-0.01
15:41:11.134,0.03,0.04,-2.38,-0.01
15:41:11.246,0.03,0.04,-2.38,-0.01
15:41:11.248,0.03,0.04,-2.38,-0.01
15:41:11.361,0.06,0.02,-2.77,-0.01
15:41:11.364,0.06,0.02,-2.77,-0.01
15:41:11.475,0.06,0.02,-2.77,-0.01
15:41:11.478,0.06,0.02,-2.77,-0.01
15:41:11.593,-0.03,0.03,-3.05,-0.01
15:41:11.597,-0.03,0.03,-3.05,-0.01
15:41:11.705,0.15,0.03,-3.39,-0.01
15:41:11.707,0.15,0.03,-3.39,-0.01
15:41:11.819,0.12,0.0,-3.54,-0.01
15:41:11.822,0.12,0.0,-3.54,-0.01
15:41:11.934,0.12,0.0,-3.54,-0.01
15:41:11.937,0.12,0.0,-3.54,-0.01
15:41:12.049,0.07,0.0,-3.86,-0.01
15:41:12.051,0.07,0.0,-3.86,-0.01
15:41:12.164,0.03,0.01,-4.0,-0.01
15:41:12.168,0.03,0.01,-4.0,-0.01
15:41:12.278,0.02,0.08,-4.18,-0.01
15:41:12.281,0.02,0.08,-4.18,-0.01
15:41:12.393,0.02,0.08,-4.18,-0.01
15:41:12.396,0.02,0.08,-4.18,-0.01
15:41:12.507,0.07,-0.01,-4.58,-0.01
15:41:12.510,0.07,-0.01,-4.58,-0.01
15:41:12.622,0.07,0.03,-4.77,-0.01
15:41:12.625,0.07,0.03,-4.77,-0.01
15:41:12.737,0.05,0.04,-4.93,-0.01
15:41:12.740,0.05,0.04,-4.93,-0.02
15:41:12.852,0.05,0.04,-4.93,-0.02
15:41:12.856,0.05,0.04,-4.93,-0.02
15:41:12.971,-0.01,0.01,-5.24,-0.02
15:41:12.975,-0.01,0.01,-5.24,-0.02
15:41:13.085,0.03,0.0,-5.46,-0.02
15:41:13.090,0.03,0.0,-5.46,-0.01
15:41:13.203,0.03,0.0,-5.46,-0.01
15:41:13.212,0.03,0.0,-5.46,-0.01
15:41:13.316,0.15,0.0,-5.93,-0.01
15:41:13.326,0.15,0.0,-5.93,-0.01
15:41:13.431,0.08,0.0,-6.05,-0.01
15:41:13.441,0.08,0.0,-6.05,-0.01
15:41:13.547,-0.09,0.01,-6.07,-0.01
15:41:13.556,-0.09,0.01,-6.07,-0.01
15:41:13.665,-0.09,0.01,-6.07,-0.01
15:41:13.677,-0.09,0.01,-6.07,-0.01
15:41:13.781,0.11,0.02,-6.62,-0.01
15:41:13.790,0.11,0.02,-6.62,-0.01
15:41:13.902,0.04,0.04,-6.74,-0.01
15:41:13.912,0.04,0.04,-6.74,-0.01
15:41:14.012,0.04,0.04,-6.74,-0.01
15:41:14.022,0.04,0.04,-6.74,-0.01
15:41:14.128,0.04,0.0,-7.09,-0.01
15:41:14.136,0.04,0.0,-7.09,-0.01
15:41:14.243,-0.04,0.06,-7.2,-0.01
15:41:14.255,-0.04,0.06,-7.2,-0.01
15:41:14.361,-0.03,0.01,-7.39,-0.01
15:41:14.370,-0.03,0.01,-7.39,-0.01
15:41:14.459,-0.1,0.03,-7.51,-0.01
15:41:14.482,-0.1,0.03,-7.51,-0.01
15:41:14.575,0.06,0.06,-7.84,-0.01
15:41:14.598,0.06,0.06,-7.84,0.0
15:41:14.689,0.14,0.03,-8.09,0.0
15:41:14.712,0.14,0.03,-8.09,0.0
15:41:14.809,0.03,0.0,-8.17,0.0
15:41:14.832,0.03,0.0,-8.17,0.0
15:41:14.929,0.03,0.03,-8.35,0.0
15:41:14.933,0.03,0.03,-8.35,0.0
15:41:15.040,-0.03,0.05,-8.47,0.0
15:41:15.044,-0.03,0.05,-8.47,-0.01
15:41:15.156,-0.03,0.08,-8.65,-0.01
15:41:15.162,-0.03,0.08,-8.65,-0.01
15:41:15.269,0.1,0.01,-8.96,-0.01
15:41:15.278,0.1,0.01,-8.96,-0.01
15:41:15.386,0.08,0.03,-9.12,-0.01
15:41:15.394,0.08,0.03,-9.12,-0.01
15:41:15.505,0.06,0.01,-9.28,-0.01
15:41:15.512,0.06,0.01,-9.28,-0.01
15:41:15.623,0.01,0.04,-9.42,-0.01
15:41:15.632,0.01,0.04,-9.42,-0.01
15:41:15.738,0.01,0.04,-9.42,-0.01
15:41:15.747,0.01,0.04,-9.42,-0.01
15:41:15.854,0.01,0.04,-9.42,-0.01
15:41:15.864,0.01,0.04,-9.42,-0.01
15:41:15.968,0.07,-0.02,-9.84,-0.01
15:41:15.979,0.07,-0.02,-9.84,-0.01
15:41:16.089,0.07,0.03,-10.01,-0.01
15:41:16.099,0.07,0.03,-10.01,-0.01
15:41:16.207,0.07,0.03,-10.01,-0.01
15:41:16.218,0.07,0.03,-10.01,-0.01
15:41:16.318,0.07,0.03,-10.01,-0.01
15:41:16.330,0.07,0.03,-10.01,-0.01
15:41:16.440,0.07,0.03,-10.01,-0.01
15:41:16.449,0.07,0.03,-10.01,-0.01
15:41:16.549,0.07,0.03,-10.01,-0.01
15:41:16.560,0.07,0.03,-10.01,-0.01
15:41:16.672,0.07,0.03,-10.01,-0.01
15:41:16.685,0.07,0.03,-10.01,-0.01
15:41:16.798,0.07,0.03,-10.01,-0.01
15:41:16.811,0.07,0.03,-10.01,-0.01
15:41:16.866,0.07,0.03,-10.01,-0.01
15:41:16.900,0.07,0.03,-10.01,-0.01
15:41:16.981,0.07,0.03,-10.01,-0.01
15:41:16.984,0.07,0.03,-10.01,-0.01
15:41:17.095,0.07,0.03,-10.01,-0.01
15:41:17.098,0.07,0.03,-10.01,-0.01
15:41:17.210,0.07,0.03,-10.01,-0.01
15:41:17.213,0.07,0.03,-10.01,-0.01
15:41:17.325,0.07,0.03,-10.01,-0.01
15:41:17.327,0.07,0.03,-10.01,-0.01
15:41:17.439,0.07,0.03,-10.01,-0.01
15:41:17.443,0.07,0.03,-10.01,-0.01
15:41:17.554,0.07,0.03,-10.01,-0.01
15:41:17.557,0.07,0.03,-10.01,-0.01
15:41:17.669,0.07,0.03,-10.01,-0.01
15:41:17.672,0.07,0.03,-10.01,-0.01
15:41:17.784,0.07,0.03,-10.01,-0.01
15:41:17.787,0.07,0.03,-10.01,-0.01
15:41:17.898,0.07,0.03,-10.01,-0.01
15:41:17.901,0.07,0.03,-10.01,-0.01
15:41:18.013,0.07,0.03,-10.01,-0.01
15:41:18.016,0.07,0.03,-10.01,-0.01
15:41:18.128,0.09,0.06,-13.28,-0.01
15:41:18.131,0.09,0.06,-13.28,-0.02
15:41:18.242,0.09,0.06,-13.28,-0.02
15:41:18.245,0.09,0.06,-13.28,-0.02
15:41:18.357,0.09,0.06,-13.28,-0.02
15:41:18.360,0.09,0.06,-13.28,-0.02
15:41:18.472,0.09,0.06,-13.28,-0.02
15:41:18.474,0.09,0.06,-13.28,-0.02
15:41:18.587,0.06,0.02,-13.98,-0.02
15:41:18.590,0.06,0.02,-13.98,-0.02
15:41:18.701,0.08,-0.01,-14.19,-0.02
15:41:18.704,0.08,-0.01,-14.19,-0.02
15:41:18.816,0.08,-0.01,-14.19,-0.02
15:41:18.819,0.08,-0.01,-14.19,-0.02
15:41:18.932,0.06,0.02,-14.53,-0.02
15:41:18.936,0.06,0.02,-14.53,-0.02
15:41:19.045,0.07,0.03,-14.71,-0.02
15:41:19.048,0.07,0.03,-14.71,-0.02
15:41:19.160,0.07,0.03,-14.71,-0.02
15:41:19.163,0.07,0.03,-14.71,-0.02
15:41:19.276,-0.44,0.15,-14.79,-0.02
15:41:19.280,-0.44,0.15,-14.79,-0.02
15:41:19.393,-1.18,0.78,-14.04,-0.02
15:41:19.400,-1.18,0.78,-14.04,-0.02
15:41:19.506,-1.18,0.78,-14.04,-0.02
15:41:19.512,-1.18,0.78,-14.04,-0.02
15:41:19.621,-3.92,1.73,-10.98,-0.02
15:41:19.628,-3.92,1.73,-10.98,-0.03
15:41:19.736,-4.45,1.65,-10.42,-0.03
15:41:19.743,-4.45,1.65,-10.42,-0.03
15:41:19.853,-3.95,1.33,-10.69,-0.03
15:41:19.859,-3.95,1.33,-10.69,-0.03
15:41:19.970,-3.34,2.65,-11.3,-0.03
15:41:19.977,-3.34,2.65,-11.3,-0.03
15:41:20.081,-3.34,2.65,-11.3,-0.03
15:41:20.086,-3.34,2.65,-11.3,-0.03
15:41:20.196,-3.3,3.82,-11.5,-0.03
15:41:20.204,-3.3,3.82,-11.5,-0.04
15:41:20.315,-5.12,3.34,-10.9,-0.04
15:41:20.321,-5.12,3.34,-10.9,-0.04
15:41:20.435,-7.8,3.75,-9.65,-0.04
15:41:20.442,-7.8,3.75,-9.65,-0.04
15:41:20.547,-9.67,3.68,-9.79,-0.04
15:41:20.554,-9.67,3.68,-9.79,-0.04
15:41:20.653,-9.67,3.68,-9.79,-0.04
15:41:20.667,-9.67,3.68,-9.79,-0.04
15:41:20.782,-9.91,0.73,-11.12,-0.04
15:41:20.789,-9.91,0.73,-11.12,-0.04
15:41:20.900,-9.91,0.73,-11.12,-0.04
15:41:20.909,-9.91,0.73,-11.12,-0.04
15:41:21.003,0.49,-1.95,-16.29,-0.04
15:41:21.020,0.49,-1.95,-16.29,-0.05
15:41:21.120,0.49,-1.95,-16.29,-0.05
15:41:21.138,0.49,-1.95,-16.29,-0.05
15:41:21.242,-0.57,-1.48,-15.9,-0.05
15:41:21.252,-0.57,-1.48,-15.9,-0.05
15:41:21.340,-2.71,0.18,-13.31,-0.05
15:41:21.364,-2.71,0.18,-13.31,-0.05
15:41:21.458,-3.94,2.21,-12.25,-0.05
15:41:21.481,-3.94,2.21,-12.25,-0.05
15:41:21.573,-6.17,2.37,-10.82,-0.05
15:41:21.596,-6.17,2.37,-10.82,-0.05
15:41:21.690,-7.1,1.47,-11.43,-0.05
15:41:21.697,-7.1,1.47,-11.43,-0.05
15:41:21.806,-7.1,1.47,-11.43,-0.05
15:41:21.813,-7.1,1.47,-11.43,-0.05
15:41:21.919,-5.61,-2.25,-16.29,-0.05
15:41:21.933,-5.61,-2.25,-16.29,-0.05
15:41:22.031,0.45,-2.72,-19.26,-0.05
15:41:22.040,0.45,-2.72,-19.26,-0.05
15:41:22.148,3.9,-3.58,-20.61,-0.05
15:41:22.161,3.9,-3.58,-20.61,-0.06
15:41:22.268,3.2,-3.92,-21.06,-0.06
15:41:22.278,3.2,-3.92,-21.06,-0.06
15:41:22.383,3.77,-3.88,-21.85,-0.06
15:41:22.412,3.77,-3.88,-21.85,-0.06
15:41:22.499,5.49,-4.96,-24.13,-0.06
15:41:22.509,5.49,-4.96,-24.13,-0.07
15:41:22.618,6.59,-5.74,-25.8,-0.07
15:41:22.626,6.59,-5.74,-25.8,-0.07
15:41:22.733,5.73,-5.17,-25.19,-0.07
15:41:22.744,5.73,-5.17,-25.19,-0.08
15:41:22.851,4.43,-4.54,-24.09,-0.08
15:41:22.859,4.43,-4.54,-24.09,-0.08
15:41:22.968,3.31,-3.98,-23.26,-0.08
15:41:22.981,3.31,-3.98,-23.26,-0.09
15:41:23.092,2.35,-3.32,-22.57,-0.09
15:41:23.103,2.35,-3.32,-22.57,-0.09
15:41:23.199,1.53,-2.64,-21.96,-0.09
15:41:23.210,1.53,-2.64,-21.96,-0.09
15:41:23.313,0.52,-2.21,-21.49,-0.09
15:41:23.326,0.52,-2.21,-21.49,-0.09
15:41:23.429,0.52,-2.21,-21.49,-0.09
15:41:23.440,0.52,-2.21,-21.49,-0.09
15:41:23.546,-0.17,-0.88,-21.06,-0.09
15:41:23.557,-0.17,-0.88,-21.06,-0.1
15:41:23.633,-0.09,-0.26,-21.39,-0.1
15:41:23.668,-0.09,-0.26,-21.39,-0.1
15:41:23.748,0.01,0.07,-21.63,-0.1
15:41:23.751,0.01,0.07,-21.63,-0.1
15:41:23.863,0.01,0.04,-21.79,-0.1
15:41:23.866,0.01,0.04,-21.79,-0.1
15:41:23.978,-0.17,-0.04,-21.83,-0.1
15:41:23.981,-0.17,-0.04,-21.83,-0.11
15:41:24.092,-0.17,-0.04,-21.83,-0.11
15:41:24.095,-0.17,-0.04,-21.83,-0.11
15:41:24.207,-0.17,-0.04,-21.83,-0.11
15:41:24.210,-0.17,-0.04,-21.83,-0.11
15:41:24.322,-0.12,0.03,-22.41,-0.11
15:41:24.325,-0.12,0.03,-22.41,-0.13
15:41:24.436,0.07,-0.05,-22.76,-0.13
15:41:24.439,0.07,-0.05,-22.76,-0.13
15:41:24.551,-0.01,0.04,-22.87,-0.13
15:41:24.555,-0.01,0.04,-22.87,-0.13
15:41:24.666,-0.01,0.04,-22.87,-0.13
15:41:24.669,-0.01,0.04,-22.87,-0.13
15:41:24.780,-0.04,-0.02,-23.21,-0.13
15:41:24.783,-0.04,-0.02,-23.21,-0.14
15:41:24.895,-0.1,-0.01,-23.32,-0.14
15:41:24.898,-0.1,-0.01,-23.32,-0.14
15:41:25.010,-0.04,-0.03,-23.56,-0.14
15:41:25.012,-0.04,-0.03,-23.56,-0.15
15:41:25.124,-0.04,-0.03,-23.56,-0.15
15:41:25.127,-0.04,-0.03,-23.56,-0.15
15:41:25.239,-0.16,0.04,-23.81,-0.15
15:41:25.242,-0.16,0.04,-23.81,-0.16
15:41:25.354,-0.16,0.04,-23.81,-0.16
15:41:25.356,-0.16,0.04,-23.81,-0.16
15:41:25.468,0.0,-0.07,-24.32,-0.16
15:41:25.472,0.0,-0.07,-24.32,-0.17
15:41:25.583,0.0,-0.06,-24.5,-0.17
15:41:25.586,0.0,-0.06,-24.5,-0.17
15:41:25.698,0.02,-0.02,-24.7,-0.17
15:41:25.701,0.02,-0.02,-24.7,-0.17
15:41:25.813,-0.1,-0.01,-24.77,-0.17
15:41:25.816,-0.1,-0.01,-24.77,-0.18
15:41:25.929,-0.05,0.01,-25.0,-0.18
15:41:25.932,-0.05,0.01,-25.0,-0.18
15:41:26.043,-0.05,0.01,-25.0,-0.18
15:41:26.046,-0.05,0.01,-25.0,-0.18
15:41:26.160,-0.11,0.01,-25.31,-0.18
15:41:26.164,-0.11,0.01,-25.31,-0.18
15:41:26.276,-0.13,0.01,-25.47,-0.18
15:41:26.283,-0.13,0.01,-25.47,-0.18
15:41:26.392,-0.07,0.02,-25.7,-0.18
15:41:26.400,-0.07,0.02,-25.7,-0.18
15:41:26.507,-0.03,0.0,-25.92,-0.18
15:41:26.516,-0.03,0.0,-25.92,-0.18
15:41:26.617,-0.1,0.01,-26.04,-0.18
15:41:26.625,-0.1,0.01,-26.04,-0.18
15:41:26.735,-0.07,-0.03,-26.24,-0.18
15:41:26.740,-0.07,-0.03,-26.24,-0.18
15:41:26.845,-0.07,-0.03,-26.24,-0.18
15:41:26.847,-0.07,-0.03,-26.24,-0.18
15:41:26.960,-0.12,0.04,-26.56,-0.18
15:41:26.964,-0.12,0.04,-26.56,-0.18
15:41:27.074,-0.12,0.03,-26.73,-0.18
15:41:27.078,-0.12,0.03,-26.73,-0.17
15:41:27.189,-0.12,0.03,-26.73,-0.17
15:41:27.192,-0.12,0.03,-26.73,-0.17
15:41:27.304,0.02,-0.02,-27.22,-0.17
15:41:27.306,0.02,-0.02,-27.22,-0.17
15:41:27.418,-0.03,0.02,-27.35,-0.17
15:41:27.421,-0.03,0.02,-27.35,-0.17
15:41:27.533,-0.03,0.02,-27.35,-0.17
15:41:27.536,-0.03,0.02,-27.35,-0.17
15:41:27.647,0.01,0.01,-27.75,-0.17
15:41:27.651,0.01,0.01,-27.75,-0.17
15:41:27.780,0.01,0.01,-27.75,-0.17
15:41:27.791,0.01,0.01,-27.75,-0.17
