Time,Roll_X(deg),Pitch_Y(deg),Yaw_Z(deg),Altitude(m)
15:05:09.268,28.27,-65.91,358.76,0.0
15:05:09.271,28.27,-65.91,358.76,37.27
15:05:09.377,29.2,-65.93,357.59,37.27
15:05:09.389,29.2,-65.93,357.59,37.26
15:05:09.488,28.94,-65.81,357.65,37.26
15:05:09.492,28.94,-65.81,357.65,37.26
15:05:09.601,28.44,-66.08,358.01,37.26
15:05:09.606,28.44,-66.08,358.01,37.26
15:05:09.712,29.12,-65.87,357.39,37.26
15:05:09.715,29.12,-65.87,357.39,37.26
15:05:09.825,30.02,-66.17,356.59,37.26
15:05:09.828,30.02,-66.17,356.59,37.26
15:05:09.941,30.07,-65.38,356.49,37.26
15:05:09.944,30.07,-65.38,356.49,37.26
15:05:10.062,29.47,-65.74,357.03,37.26
15:05:10.066,29.47,-65.74,357.03,37.26
15:05:10.173,28.51,-65.69,358.63,37.26
15:05:10.182,28.51,-65.69,358.63,37.25
15:05:10.284,28.51,-65.69,358.63,37.25
15:05:10.287,28.51,-65.69,358.63,37.25
15:05:10.400,32.9,-67.17,355.62,37.25
15:05:10.404,32.9,-67.17,355.62,37.25
15:05:10.521,32.39,-67.35,355.57,37.25
15:05:10.525,32.39,-67.35,355.57,37.24
15:05:10.634,31.27,-66.82,355.91,37.24
15:05:10.644,31.27,-66.82,355.91,37.24
15:05:10.746,31.64,-66.9,355.46,37.24
15:05:10.759,31.64,-66.9,355.46,37.23
15:05:10.866,30.36,-65.83,356.56,37.23
15:05:10.881,30.36,-65.83,356.56,37.23
15:05:10.977,-1.55,-0.67,1.06,0.0
15:05:10.989,-1.55,-0.67,1.06,-0.01
15:05:11.100,-0.93,0.32,0.09,-0.01
15:05:11.114,-0.93,0.32,0.09,-0.01
15:05:11.213,-0.08,-0.44,-1.17,-0.01
15:05:11.227,-0.08,-0.44,-1.17,-0.02
15:05:11.328,-0.08,-0.44,-1.17,-0.02
15:05:11.341,-0.08,-0.44,-1.17,-0.02
15:05:11.443,1.36,1.05,-3.08,-0.02
15:05:11.451,1.36,1.05,-3.08,-0.03
15:05:11.563,4.22,1.27,-6.18,-0.03
15:05:11.575,4.22,1.27,-6.18,-0.03
15:05:11.672,4.22,1.27,-6.18,-0.03
15:05:11.684,4.22,1.27,-6.18,-0.03
15:05:11.793,0.2,0.04,-4.49,-0.03
15:05:11.802,0.2,0.04,-4.49,-0.04
15:05:11.908,-4.43,0.3,-0.9,-0.04
15:05:11.919,-4.43,0.3,-0.9,-0.05
15:05:12.006,-4.43,0.3,-0.9,-0.05
15:05:12.030,-4.43,0.3,-0.9,-0.05
15:05:12.137,-7.2,0.44,1.61,-0.05
15:05:12.150,-7.2,0.44,1.61,-0.06
15:05:12.238,-5.8,0.46,0.71,-0.06
15:05:12.262,-5.8,0.46,0.71,-0.07
15:05:12.350,-2.43,-0.73,-1.92,-0.07
15:05:12.376,-2.43,-0.73,-1.92,-0.07
15:05:12.471,0.46,-1.14,-4.57,-0.07
15:05:12.477,0.46,-1.14,-4.57,-0.08
15:05:12.584,2.12,-0.85,-6.61,-0.08
15:05:12.592,2.12,-0.85,-6.61,-0.08
15:05:12.702,0.73,-0.93,-5.7,-0.08
15:05:12.711,0.73,-0.93,-5.7,-0.08
15:05:12.820,-0.57,-0.58,-4.72,-0.08
15:05:12.829,-0.57,-0.58,-4.72,-0.08
15:05:12.926,-1.45,0.24,-3.98,-0.08
15:05:12.940,-1.45,0.24,-3.98,-0.08
15:05:13.043,-1.45,0.24,-3.98,-0.08
15:05:13.052,-1.45,0.24,-3.98,-0.08
15:05:13.156,-0.72,0.6,-4.48,-0.08
15:05:13.180,-0.72,0.6,-4.48,-0.09
15:05:13.273,0.61,0.16,-5.75,-0.09
15:05:13.295,0.61,0.16,-5.75,-0.09
15:05:13.389,0.74,0.43,-6.1,-0.09
15:05:13.395,0.74,0.43,-6.1,-0.1
15:05:13.497,1.45,0.25,-7.17,-0.1
15:05:13.525,1.45,0.25,-7.17,-0.1
15:05:13.614,0.31,0.15,-6.51,-0.1
15:05:13.638,0.31,0.15,-6.51,-0.1
15:05:13.732,-0.26,0.06,-6.03,-0.1
15:05:13.756,-0.26,0.06,-6.03,-0.11
15:05:13.860,0.17,0.03,-6.24,-0.11
15:05:13.884,0.17,0.03,-6.24,-0.11
15:05:13.968,0.17,0.03,-6.24,-0.11
15:05:13.974,0.17,0.03,-6.24,-0.11
15:05:14.083,0.77,0.23,-6.97,-0.11
15:05:14.089,0.77,0.23,-6.97,-0.12
15:05:14.202,0.82,0.37,-7.39,-0.12
15:05:14.208,0.82,0.37,-7.39,-0.13
15:05:14.315,0.82,0.37,-7.39,-0.13
15:05:14.324,0.82,0.37,-7.39,-0.13
15:05:14.433,0.9,0.11,-7.96,-0.13
15:05:14.439,0.9,0.11,-7.96,-0.14
15:05:14.550,0.9,0.11,-7.96,-0.14
15:05:14.558,0.9,0.11,-7.96,-0.14
15:05:14.662,-0.34,0.3,-7.19,-0.14
15:05:14.670,-0.34,0.3,-7.19,-0.14
15:05:14.781,-0.34,0.3,-7.19,-0.14
15:05:14.789,-0.34,0.3,-7.19,-0.14
15:05:14.899,1.11,0.06,-8.84,-0.14
15:05:14.907,1.11,0.06,-8.84,-0.15
15:05:15.017,1.11,0.06,-8.84,-0.15
15:05:15.025,1.11,0.06,-8.84,-0.15
15:05:15.128,1.11,0.06,-8.84,-0.15
15:05:15.138,1.11,0.06,-8.84,-0.15
15:05:15.216,1.11,0.06,-8.84,-0.15
15:05:15.245,1.11,0.06,-8.84,-0.15
15:05:15.340,1.11,0.06,-8.84,-0.15
15:05:15.366,1.11,0.06,-8.84,-0.15
15:05:15.479,1.11,0.06,-8.84,-0.15
15:05:15.486,1.11,0.06,-8.84,-0.15
15:05:15.560,1.11,0.06,-8.84,-0.15
15:05:15.563,1.11,0.06,-8.84,-0.15
15:05:15.674,1.11,0.06,-8.84,-0.15
15:05:15.677,1.11,0.06,-8.84,-0.15
15:05:15.789,1.11,0.06,-8.84,-0.15
15:05:15.792,1.11,0.06,-8.84,-0.15
15:05:15.904,1.11,0.06,-8.84,-0.15
15:05:15.907,1.11,0.06,-8.84,-0.15
15:05:16.020,1.11,0.06,-8.84,-0.15
15:05:16.023,1.11,0.06,-8.84,-0.15
15:05:16.133,1.11,0.06,-8.84,-0.15
15:05:16.136,1.11,0.06,-8.84,-0.15
15:05:16.248,1.11,0.06,-8.84,-0.15
15:05:16.250,1.11,0.06,-8.84,-0.15
15:05:16.362,1.11,0.06,-8.84,-0.15
15:05:16.365,1.11,0.06,-8.84,-0.15
15:05:16.477,1.11,0.06,-8.84,-0.15
15:05:16.480,1.11,0.06,-8.84,-0.15
15:05:16.592,1.11,0.06,-8.84,-0.15
15:05:16.594,1.11,0.06,-8.84,-0.15
15:05:16.707,1.11,0.06,-8.84,-0.15
15:05:16.710,1.11,0.06,-8.84,-0.15
15:05:16.825,1.11,0.06,-8.84,-0.15
15:05:16.829,1.11,0.06,-8.84,-0.15
15:05:16.940,1.11,0.06,-8.84,-0.15
15:05:16.946,1.11,0.06,-8.84,-0.15
15:05:17.051,1.11,0.06,-8.84,-0.15
15:05:17.055,1.11,0.06,-8.84,-0.15
15:05:17.168,1.11,0.06,-8.84,-0.15
15:05:17.174,1.11,0.06,-8.84,-0.15
15:05:17.284,20.07,2.24,-14.25,-0.15
15:05:17.292,20.07,2.24,-14.25,-0.22
15:05:17.403,20.07,2.24,-14.25,-0.22
15:05:17.411,20.07,2.24,-14.25,-0.22
15:05:17.516,23.47,3.15,-16.87,-0.22
15:05:17.526,23.47,3.15,-16.87,-0.23
15:05:17.628,25.88,3.53,-18.3,-0.23
15:05:17.635,25.88,3.53,-18.3,-0.23
15:05:17.739,25.88,3.53,-18.3,-0.23
15:05:17.741,25.88,3.53,-18.3,-0.23
15:05:17.857,27.22,4.6,-18.14,-0.23
15:05:17.860,27.22,4.6,-18.14,-0.24
15:05:17.970,26.87,4.12,-17.82,-0.24
15:05:17.974,26.87,4.12,-17.82,-0.24
15:05:18.083,26.87,4.12,-17.82,-0.24
15:05:18.085,26.87,4.12,-17.82,-0.24
15:05:18.200,27.76,4.3,-19.38,-0.24
15:05:18.204,27.76,4.3,-19.38,-0.25
15:05:18.315,25.64,4.69,-18.31,-0.25
15:05:18.319,25.64,4.69,-18.31,-0.25
15:05:18.429,24.23,4.53,-17.81,-0.25
15:05:18.435,24.23,4.53,-17.81,-0.26
15:05:18.542,24.23,4.53,-17.81,-0.26
15:05:18.549,24.23,4.53,-17.81,-0.26
15:05:18.665,24.23,4.53,-17.81,-0.26
15:05:18.673,24.23,4.53,-17.81,-0.26
15:05:18.775,25.72,4.23,-19.39,-0.26
15:05:18.782,25.72,4.23,-19.39,-0.26
15:05:18.899,25.83,4.33,-19.87,-0.26
15:05:18.905,25.83,4.33,-19.87,-0.27
15:05:19.008,25.83,4.33,-19.87,-0.27
15:05:19.014,25.83,4.33,-19.87,-0.27
15:05:19.130,26.23,4.28,-20.19,-0.27
15:05:19.136,26.23,4.28,-20.19,-0.27
15:05:19.246,26.23,4.28,-20.19,-0.27
15:05:19.253,26.23,4.28,-20.19,-0.27
15:05:19.363,25.89,4.47,-20.66,-0.27
15:05:19.371,25.89,4.47,-20.66,-0.28
15:05:19.474,23.58,4.76,-20.15,-0.28
15:05:19.483,23.58,4.76,-20.15,-0.28
15:05:19.594,20.0,4.97,-18.75,-0.28
15:05:19.603,20.0,4.97,-18.75,-0.28
15:05:19.705,15.66,5.72,-17.6,-0.28
15:05:19.715,15.66,5.72,-17.6,-0.29
15:05:19.804,10.33,6.44,-17.26,-0.29
15:05:19.829,10.33,6.44,-17.26,-0.29
15:05:19.922,10.33,6.44,-17.26,-0.29
15:05:19.946,10.33,6.44,-17.26,-0.29
15:05:20.040,-0.6,6.5,-17.32,-0.29
15:05:20.058,-0.6,6.5,-17.32,-0.3
15:05:20.151,-4.85,5.92,-17.61,-0.3
15:05:20.176,-4.85,5.92,-17.61,-0.31
15:05:20.270,-8.27,4.88,-17.73,-0.31
15:05:20.305,-8.27,4.88,-17.73,-0.31
15:05:20.383,-8.27,4.88,-17.73,-0.31
15:05:20.407,-8.27,4.88,-17.73,-0.31
15:05:20.504,-11.03,1.67,-17.53,-0.31
15:05:20.512,-11.03,1.67,-17.53,-0.32
15:05:20.619,-11.17,0.31,-17.14,-0.32
15:05:20.628,-11.17,0.31,-17.14,-0.33
15:05:20.740,-11.6,-0.5,-16.45,-0.33
15:05:20.771,-11.6,-0.5,-16.45,-0.33
15:05:20.851,-11.12,-0.91,-16.9,-0.33
15:05:20.859,-11.12,-0.91,-16.9,-0.33
15:05:20.965,-10.22,-1.41,-18.34,-0.33
15:05:20.975,-10.22,-1.41,-18.34,-0.34
15:05:21.103,-11.32,-1.68,-18.22,-0.34
15:05:21.109,-11.32,-1.68,-18.22,-0.34
15:05:21.200,-12.09,-1.12,-18.63,-0.34
15:05:21.208,-12.09,-1.12,-18.63,-0.34
15:05:21.318,-15.33,-0.35,-18.52,-0.34
15:05:21.329,-15.33,-0.35,-18.52,-0.35
15:05:21.435,-19.16,-0.45,-19.51,-0.35
15:05:21.444,-19.16,-0.45,-19.51,-0.35
15:05:21.546,-25.1,-1.82,-18.54,-0.35
15:05:21.554,-25.1,-1.82,-18.54,-0.35
15:05:21.666,-33.17,-2.31,-14.85,-0.35
15:05:21.677,-33.17,-2.31,-14.85,-0.35
15:05:21.782,-38.35,-2.7,-11.95,-0.35
15:05:21.793,-38.35,-2.7,-11.95,-0.35
15:05:21.868,-38.35,-2.7,-11.95,-0.35
15:05:21.910,-38.35,-2.7,-11.95,-0.35
15:05:22.012,-38.38,-4.6,-10.93,-0.35
15:05:22.024,-38.38,-4.6,-10.93,-0.36
15:05:22.097,-39.77,-5.09,-9.61,-0.36
15:05:22.140,-39.77,-5.09,-9.61,-0.36
15:05:22.212,-45.21,-4.93,-4.92,-0.36
15:05:22.215,-45.21,-4.93,-4.92,-0.36
15:05:22.327,-44.57,-5.97,-6.3,-0.36
15:05:22.330,-44.57,-5.97,-6.3,-0.36
15:05:22.441,-39.94,-6.49,-12.11,-0.36
15:05:22.444,-39.94,-6.49,-12.11,-0.35
15:05:22.556,-34.85,-6.47,-16.64,-0.35
15:05:22.559,-34.85,-6.47,-16.64,-0.35
15:05:22.671,-24.99,-6.98,-21.66,-0.35
15:05:22.673,-24.99,-6.98,-21.66,-0.36
15:05:22.785,-24.99,-6.98,-21.66,-0.36
15:05:22.788,-24.99,-6.98,-21.66,-0.36
15:05:22.900,-11.57,-6.03,-20.55,-0.36
15:05:22.903,-11.57,-6.03,-20.55,-0.36
15:05:23.015,-10.51,-4.93,-15.27,-0.36
15:05:23.018,-10.51,-4.93,-15.27,-0.36
15:05:23.130,-10.51,-4.93,-15.27,-0.36
15:05:23.132,-10.51,-4.93,-15.27,-0.36
15:05:23.244,-12.55,-3.6,-9.72,-0.36
15:05:23.247,-12.55,-3.6,-9.72,-0.37
15:05:23.359,-11.84,-3.81,-10.97,-0.37
15:05:23.362,-11.84,-3.81,-10.97,-0.37
15:05:23.474,-9.33,-3.25,-13.8,-0.37
15:05:23.476,-9.33,-3.25,-13.8,-0.37
15:05:23.588,-5.71,-2.59,-17.45,-0.37
15:05:23.591,-5.71,-2.59,-17.45,-0.38
15:05:23.703,-1.89,-1.79,-21.44,-0.38
15:05:23.706,-1.89,-1.79,-21.44,-0.38
15:05:23.818,1.78,-2.54,-26.51,-0.38
15:05:23.820,1.78,-2.54,-26.51,-0.39
15:05:23.933,6.66,-5.48,-34.39,-0.39
15:05:23.937,6.66,-5.48,-34.39,-0.4
15:05:24.047,17.52,-8.96,-48.23,-0.4
15:05:24.050,17.52,-8.96,-48.23,-0.4
15:05:24.162,33.3,-11.89,-66.39,-0.4
15:05:24.165,33.3,-11.89,-66.39,-0.41
15:05:24.277,50.89,-13.22,-85.34,-0.41
15:05:24.279,50.89,-13.22,-85.34,-0.42
15:05:24.391,61.45,-14.0,-96.2,-0.42
15:05:24.394,61.45,-14.0,-96.2,-0.43
15:05:24.506,61.45,-14.0,-96.2,-0.43
15:05:24.509,61.45,-14.0,-96.2,-0.43
15:05:24.621,89.0,-15.48,-124.18,-0.43
15:05:24.623,89.0,-15.48,-124.18,-0.44
15:05:24.739,100.57,-14.51,-137.08,-0.44
15:05:24.748,100.57,-14.51,-137.08,-0.45
15:05:24.854,103.83,-13.64,-141.97,-0.45
15:05:24.862,103.83,-13.64,-141.97,-0.46
15:05:24.970,102.97,-12.79,-142.79,-0.46
15:05:24.978,102.97,-12.79,-142.79,-0.47
15:05:25.083,103.85,-12.02,-144.65,-0.47
15:05:25.091,103.85,-12.02,-144.65,-0.48
15:05:25.199,105.77,-11.72,-146.6,-0.48
15:05:25.208,105.77,-11.72,-146.6,-0.49
15:05:25.314,105.77,-11.72,-146.6,-0.49
15:05:25.320,105.77,-11.72,-146.6,-0.49
15:05:25.428,106.12,-13.08,-146.55,-0.49
15:05:25.435,106.12,-13.08,-146.55,-0.5
15:05:25.545,105.0,-13.7,-146.39,-0.5
15:05:25.553,105.0,-13.7,-146.39,-0.5
15:05:25.659,103.27,-14.13,-145.96,-0.5
15:05:25.665,103.27,-14.13,-145.96,-0.51
15:05:25.775,103.27,-14.13,-145.96,-0.51
15:05:25.784,103.27,-14.13,-145.96,-0.51
15:05:25.897,103.39,-14.24,-146.1,-0.51
15:05:25.907,103.39,-14.24,-146.1,-0.53
15:05:26.010,103.76,-14.18,-145.89,-0.53
15:05:26.019,103.76,-14.18,-145.89,-0.53
15:05:26.127,103.76,-14.18,-145.89,-0.53
15:05:26.134,103.76,-14.18,-145.89,-0.53
15:05:26.245,103.76,-14.18,-145.89,-0.53
15:05:26.255,103.76,-14.18,-145.89,-0.53
15:05:26.347,103.76,-14.18,-145.89,-0.53
15:05:26.354,103.76,-14.18,-145.89,-0.53
15:05:26.464,103.76,-14.18,-145.89,-0.53
15:05:26.474,103.76,-14.18,-145.89,-0.53
15:05:26.579,103.76,-14.18,-145.89,-0.53
15:05:26.587,103.76,-14.18,-145.89,-0.53
15:05:26.700,103.76,-14.18,-145.89,-0.53
15:05:26.709,103.76,-14.18,-145.89,-0.53
15:05:26.818,103.76,-14.18,-145.89,-0.53
15:05:26.830,103.76,-14.18,-145.89,-0.53
15:05:26.937,103.76,-14.18,-145.89,-0.53
15:05:26.950,103.76,-14.18,-145.89,-0.53
15:05:27.048,103.76,-14.18,-145.89,-0.53
15:05:27.057,103.76,-14.18,-145.89,-0.53
15:05:27.169,103.76,-14.18,-145.89,-0.53
15:05:27.179,103.76,-14.18,-145.89,-0.53
15:05:27.279,103.76,-14.18,-145.89,-0.53
15:05:27.290,103.76,-14.18,-145.89,-0.53
15:05:27.402,103.76,-14.18,-145.89,-0.53
15:05:27.412,103.76,-14.18,-145.89,-0.53
15:05:27.517,103.76,-14.18,-145.89,-0.53
15:05:27.529,103.76,-14.18,-145.89,-0.53
15:05:27.634,103.76,-14.18,-145.89,-0.53
15:05:27.644,103.76,-14.18,-145.89,-0.53
15:05:27.747,103.76,-14.18,-145.89,-0.53
15:05:27.757,103.76,-14.18,-145.89,-0.53
15:05:27.832,103.76,-14.18,-145.89,-0.53
15:05:27.861,103.76,-14.18,-145.89,-0.53
15:05:27.947,103.76,-14.18,-145.89,-0.53
15:05:27.979,103.76,-14.18,-145.89,-0.53
15:05:28.061,103.76,-14.18,-145.89,-0.53
15:05:28.064,103.76,-14.18,-145.89,-0.53
15:05:28.176,103.76,-14.18,-145.89,-0.53
15:05:28.179,103.76,-14.18,-145.89,-0.53
15:05:28.291,103.76,-14.18,-145.89,-0.53
15:05:28.293,103.76,-14.18,-145.89,-0.53
15:05:28.405,103.76,-14.18,-145.89,-0.53
15:05:28.408,103.76,-14.18,-145.89,-0.53
15:05:28.520,103.76,-14.18,-145.89,-0.53
15:05:28.523,103.76,-14.18,-145.89,-0.53
15:05:28.635,10.52,-11.64,-57.37,-0.53
15:05:28.637,10.52,-11.64,-57.37,-0.65
15:05:28.749,8.2,-10.87,-54.88,-0.65
15:05:28.752,8.2,-10.87,-54.88,-0.66
15:05:28.864,5.52,-9.35,-51.82,-0.66
15:05:28.867,5.52,-9.35,-51.82,-0.66
15:05:28.979,5.52,-9.35,-51.82,-0.66
15:05:28.981,5.52,-9.35,-51.82,-0.66
15:05:29.094,5.17,-7.62,-50.21,-0.66
15:05:29.097,5.17,-7.62,-50.21,-0.67
15:05:29.208,7.28,-7.51,-51.82,-0.67
15:05:29.211,7.28,-7.51,-51.82,-0.68
15:05:29.323,7.28,-7.51,-51.82,-0.68
15:05:29.326,7.28,-7.51,-51.82,-0.68
15:05:29.437,7.61,-7.5,-52.7,-0.68
15:05:29.440,7.61,-7.5,-52.7,-0.69
15:05:29.552,5.75,-7.98,-51.32,-0.69
15:05:29.555,5.75,-7.98,-51.32,-0.7
15:05:29.667,5.75,-7.98,-51.32,-0.7
15:05:29.670,5.75,-7.98,-51.32,-0.7
15:05:29.782,7.22,-7.31,-53.2,-0.7
15:05:29.784,7.22,-7.31,-53.2,-0.71
15:05:29.896,7.22,-7.31,-53.2,-0.71
15:05:29.899,7.22,-7.31,-53.2,-0.71
15:05:30.011,1.12,-5.33,-46.33,-0.71
15:05:30.014,1.12,-5.33,-46.33,-0.72
15:05:30.126,1.12,-5.33,-46.33,-0.72
15:05:30.128,1.12,-5.33,-46.33,-0.72
15:05:30.240,-14.7,6.16,-29.61,-0.72
15:05:30.243,-14.7,6.16,-29.61,-0.73
15:05:30.355,-17.33,11.81,-25.53,-0.73
15:05:30.358,-17.33,11.81,-25.53,-0.73
15:05:30.470,-18.67,14.8,-22.58,-0.73
15:05:30.473,-18.67,14.8,-22.58,-0.74
15:05:30.588,-19.68,18.71,-20.06,-0.74
15:05:30.592,-19.68,18.71,-20.06,-0.74
15:05:30.699,-19.68,18.71,-20.06,-0.74
15:05:30.702,-19.68,18.71,-20.06,-0.74
15:05:30.818,-19.68,18.71,-20.06,-0.74
15:05:30.822,-19.68,18.71,-20.06,-0.74
15:05:30.935,-18.94,38.54,-14.37,-0.74
15:05:30.943,-18.94,38.54,-14.37,-0.76
15:05:31.049,-18.94,38.54,-14.37,-0.76
15:05:31.057,-18.94,38.54,-14.37,-0.76
15:05:31.165,-18.86,39.7,-14.29,-0.76
15:05:31.172,-18.86,39.7,-14.29,-0.77
15:05:31.277,-18.86,39.7,-14.29,-0.77
15:05:31.283,-18.86,39.7,-14.29,-0.77
15:05:31.394,-19.58,37.61,-17.29,-0.77
15:05:31.402,-19.58,37.61,-17.29,-0.77
15:05:31.507,-19.15,36.16,-18.58,-0.77
15:05:31.515,-19.15,36.16,-18.58,-0.77
15:05:31.626,-18.91,34.63,-19.23,-0.77
15:05:31.634,-18.91,34.63,-19.23,-0.77
15:05:31.744,-18.65,34.72,-18.89,-0.77
15:05:31.753,-18.65,34.72,-18.89,-0.77
15:05:31.863,-17.49,34.47,-18.31,-0.77
15:05:31.871,-17.49,34.47,-18.31,-0.77
15:05:31.980,-16.49,32.97,-18.04,-0.77
15:05:31.992,-16.49,32.97,-18.04,-0.77
15:05:32.081,-16.35,31.48,-17.96,-0.77
15:05:32.100,-16.35,31.48,-17.96,-0.77
15:05:32.209,-16.48,30.71,-17.87,-0.77
15:05:32.218,-16.48,30.71,-17.87,-0.77
15:05:32.313,-16.48,30.71,-17.87,-0.77
15:05:32.331,-16.48,30.71,-17.87,-0.77
15:05:32.424,-17.54,28.02,-17.65,-0.77
15:05:32.452,-17.54,28.02,-17.65,-0.77
15:05:32.542,-18.7,26.26,-17.68,-0.77
15:05:32.548,-18.7,26.26,-17.68,-0.77
15:05:32.653,-19.51,25.36,-17.59,-0.77
15:05:32.677,-19.51,25.36,-17.59,-0.77
15:05:32.771,-19.37,24.48,-17.62,-0.77
15:05:32.776,-19.37,24.48,-17.62,-0.77
15:05:32.883,-19.1,23.88,-17.6,-0.77
15:05:32.905,-19.1,23.88,-17.6,-0.77
15:05:32.997,-18.62,22.38,-18.2,-0.77
15:05:33.020,-18.62,22.38,-18.2,-0.77
15:05:33.125,-18.12,19.47,-19.76,-0.77
15:05:33.134,-18.12,19.47,-19.76,-0.77
15:05:33.224,-17.26,15.35,-22.06,-0.77
15:05:33.247,-17.26,15.35,-22.06,-0.77
15:05:33.345,-14.97,10.64,-24.74,-0.77
15:05:33.373,-14.97,10.64,-24.74,-0.77
15:05:33.457,-14.97,10.64,-24.74,-0.77
15:05:33.480,-14.97,10.64,-24.74,-0.77
15:05:33.572,-4.78,-0.22,-34.08,-0.77
15:05:33.597,-4.78,-0.22,-34.08,-0.77
15:05:33.687,-4.78,-0.22,-34.08,-0.77
15:05:33.697,-4.78,-0.22,-34.08,-0.77
15:05:33.801,3.66,-3.64,-45.49,-0.77
15:05:33.807,3.66,-3.64,-45.49,-0.77
15:05:33.917,2.27,-5.88,-46.5,-0.77
15:05:33.944,2.27,-5.88,-46.5,-0.77
15:05:34.040,2.27,-5.88,-46.5,-0.77
15:05:34.049,2.27,-5.88,-46.5,-0.77
15:05:34.153,-5.65,-6.41,-38.67,-0.77
15:05:34.162,-5.65,-6.41,-38.67,-0.77
15:05:34.268,-10.46,-4.39,-32.04,-0.77
15:05:34.278,-10.46,-4.39,-32.04,-0.77
15:05:34.381,-10.2,-1.6,-30.16,-0.77
15:05:34.390,-10.2,-1.6,-30.16,-0.77
15:05:34.498,-9.16,0.09,-30.07,-0.77
15:05:34.509,-9.16,0.09,-30.07,-0.77
15:05:34.613,-9.16,0.09,-30.07,-0.77
15:05:34.619,-9.16,0.09,-30.07,-0.77
15:05:34.733,-2.6,0.42,-36.72,-0.77
15:05:34.742,-2.6,0.42,-36.72,-0.78
15:05:34.847,-3.31,-0.38,-36.59,-0.78
15:05:34.861,-3.31,-0.38,-36.59,-0.78
15:05:34.972,-4.12,-0.18,-35.65,-0.78
15:05:34.983,-4.12,-0.18,-35.65,-0.78
15:05:35.082,-2.48,0.63,-36.78,-0.78
15:05:35.092,-2.48,0.63,-36.78,-0.78
15:05:35.201,-1.94,1.34,-37.49,-0.78
15:05:35.212,-1.94,1.34,-37.49,-0.78
15:05:35.287,-6.13,3.41,-34.86,-0.78
15:05:35.290,-6.13,3.41,-34.86,-0.79
15:05:35.423,-10.17,5.85,-31.5,-0.79
15:05:35.431,-10.17,5.85,-31.5,-0.79
15:05:35.533,-12.42,8.53,-28.13,-0.79
15:05:35.539,-12.42,8.53,-28.13,-0.79
15:05:35.648,-13.66,11.49,-25.33,-0.79
15:05:35.658,-13.66,11.49,-25.33,-0.8
15:05:35.769,-14.14,14.36,-24.0,-0.8
15:05:35.778,-14.14,14.36,-24.0,-0.8
15:05:35.861,-13.72,15.95,-24.25,-0.8
15:05:35.897,-13.72,15.95,-24.25,-0.8
15:05:35.976,-13.72,15.95,-24.25,-0.8
15:05:35.978,-13.72,15.95,-24.25,-0.8
15:05:36.090,-11.94,15.05,-26.82,-0.8
15:05:36.094,-11.94,15.05,-26.82,-0.8
15:05:36.205,-11.95,14.63,-27.48,-0.8
15:05:36.208,-11.95,14.63,-27.48,-0.8
15:05:36.320,-11.95,14.63,-27.48,-0.8
15:05:36.322,-11.95,14.63,-27.48,-0.8
15:05:36.434,-11.59,13.11,-27.61,-0.8
15:05:36.437,-11.59,13.11,-27.61,-0.8
15:05:36.549,-10.89,12.93,-27.61,-0.8
15:05:36.552,-10.89,12.93,-27.61,-0.8
15:05:36.664,-9.83,11.74,-28.05,-0.8
15:05:36.666,-9.83,11.74,-28.05,-0.8
15:05:36.778,-9.28,10.7,-28.39,-0.8
15:05:36.781,-9.28,10.7,-28.39,-0.8
15:05:36.893,-9.18,9.42,-28.67,-0.8
15:05:36.896,-9.18,9.42,-28.67,-0.8
15:05:37.008,-8.74,7.99,-29.18,-0.8
15:05:37.011,-8.74,7.99,-29.18,-0.8
15:05:37.123,-8.14,6.57,-29.94,-0.8
15:05:37.126,-8.14,6.57,-29.94,-0.8
15:05:37.237,-8.14,6.57,-29.94,-0.8
15:05:37.240,-8.14,6.57,-29.94,-0.8
15:05:37.352,-8.14,6.57,-29.94,-0.8
15:05:37.355,-8.14,6.57,-29.94,-0.8
15:05:37.466,-8.14,6.57,-29.94,-0.8
15:05:37.469,-8.14,6.57,-29.94,-0.8
15:05:37.581,-8.14,6.57,-29.94,-0.8
15:05:37.584,-8.14,6.57,-29.94,-0.8
15:05:37.696,-8.14,6.57,-29.94,-0.8
15:05:37.698,-8.14,6.57,-29.94,-0.8
15:05:37.814,-8.14,6.57,-29.94,-0.8
15:05:37.820,-8.14,6.57,-29.94,-0.8
15:05:37.925,-8.14,6.57,-29.94,-0.8
15:05:37.928,-8.14,6.57,-29.94,-0.8
15:05:38.044,-8.14,6.57,-29.94,-0.8
15:05:38.052,-8.14,6.57,-29.94,-0.8
15:05:38.159,-8.14,6.57,-29.94,-0.8
15:05:38.167,-8.14,6.57,-29.94,-0.8
15:05:38.272,-8.14,6.57,-29.94,-0.8
15:05:38.279,-8.14,6.57,-29.94,-0.8
15:05:38.387,-8.14,6.57,-29.94,-0.8
15:05:38.393,-8.14,6.57,-29.94,-0.8
15:05:38.501,-8.14,6.57,-29.94,-0.8
15:05:38.509,-8.14,6.57,-29.94,-0.8
15:05:38.619,-8.14,6.57,-29.94,-0.8
15:05:38.626,-8.14,6.57,-29.94,-0.8
15:05:38.732,-8.14,6.57,-29.94,-0.8
15:05:38.739,-8.14,6.57,-29.94,-0.8
15:05:38.851,-8.14,6.57,-29.94,-0.8
15:05:38.857,-8.14,6.57,-29.94,-0.8
15:05:38.962,-8.14,6.57,-29.94,-0.8
15:05:38.971,-8.14,6.57,-29.94,-0.8
15:05:39.079,-8.14,6.57,-29.94,-0.8
15:05:39.087,-8.14,6.57,-29.94,-0.8
15:05:39.198,-8.14,6.57,-29.94,-0.8
15:05:39.204,-8.14,6.57,-29.94,-0.8
15:05:39.312,-8.14,6.57,-29.94,-0.8
15:05:39.318,-8.14,6.57,-29.94,-0.8
15:05:39.428,-8.14,6.57,-29.94,-0.8
15:05:39.436,-8.14,6.57,-29.94,-0.8
15:05:39.547,-8.14,6.57,-29.94,-0.8
15:05:39.556,-8.14,6.57,-29.94,-0.8
15:05:39.660,2.84,-3.1,-43.64,-0.8
15:05:39.668,2.84,-3.1,-43.64,-0.86
15:05:39.773,4.65,-3.6,-45.65,-0.86
15:05:39.783,4.65,-3.6,-45.65,-0.86
15:05:39.893,4.65,-3.6,-45.65,-0.86
15:05:39.901,4.65,-3.6,-45.65,-0.86
15:05:40.009,0.25,-3.37,-44.27,-0.86
15:05:40.024,0.25,-3.37,-44.27,-0.86
15:05:40.106,0.24,-4.22,-44.81,-0.86
15:05:40.127,0.24,-4.22,-44.81,-0.86
15:05:40.234,0.24,-4.22,-44.81,-0.86
15:05:40.243,0.24,-4.22,-44.81,-0.86
15:05:40.335,3.74,-5.03,-47.44,-0.86
15:05:40.359,3.74,-5.03,-47.44,-0.86
15:05:40.453,3.89,-3.71,-48.75,-0.86
15:05:40.459,3.89,-3.71,-48.75,-0.87
15:05:40.570,5.7,-3.24,-52.01,-0.87
15:05:40.582,5.7,-3.24,-52.01,-0.87
15:05:40.683,4.9,-3.63,-52.94,-0.87
15:05:40.688,4.9,-3.63,-52.94,-0.87
15:05:40.799,4.86,-4.44,-53.54,-0.87
15:05:40.809,4.86,-4.44,-53.54,-0.87
15:05:40.919,6.4,-4.61,-54.4,-0.87
15:05:40.926,6.4,-4.61,-54.4,-0.88
15:05:41.041,6.88,-4.7,-53.99,-0.88
15:05:41.068,6.88,-4.7,-53.99,-0.88
15:05:41.150,4.45,-4.39,-50.54,-0.88
15:05:41.160,4.45,-4.39,-50.54,-0.88
15:05:41.268,0.63,-3.84,-45.45,-0.88
15:05:41.279,0.63,-3.84,-45.45,-0.88
15:05:41.380,-3.68,-3.36,-40.26,-0.88
15:05:41.390,-3.68,-3.36,-40.26,-0.89
15:05:41.500,-5.15,-3.81,-38.36,-0.89
15:05:41.510,-5.15,-3.81,-38.36,-0.89
15:05:41.614,-5.15,-3.81,-38.36,-0.89
15:05:41.624,-5.15,-3.81,-38.36,-0.89
15:05:41.734,7.07,-11.67,-51.57,-0.89
15:05:41.745,7.07,-11.67,-51.57,-0.9
15:05:41.848,33.76,-16.58,-79.17,-0.9
15:05:41.859,33.76,-16.58,-79.17,-0.9
15:05:41.964,33.76,-16.58,-79.17,-0.9
15:05:41.978,33.76,-16.58,-79.17,-0.9
15:05:42.086,103.31,-16.27,-152.25,-0.9
15:05:42.100,103.31,-16.27,-152.25,-0.91
15:05:42.194,103.02,-16.34,-154.62,-0.91
15:05:42.209,103.02,-16.34,-154.62,-0.91
15:05:42.284,103.02,-16.34,-154.62,-0.91
15:05:42.321,103.02,-16.34,-154.62,-0.91
15:05:42.398,95.85,-18.09,-150.2,-0.91
15:05:42.435,95.85,-18.09,-150.2,-0.91
15:05:42.546,95.85,-18.09,-150.2,-0.91
15:05:42.557,95.85,-18.09,-150.2,-0.91
15:05:42.656,79.81,-19.57,-134.05,-0.91
15:05:42.667,79.81,-19.57,-134.05,-0.92
15:05:42.743,76.4,-20.51,-129.72,-0.92
15:05:42.745,76.4,-20.51,-129.72,-0.92
15:05:42.857,74.34,-21.58,-126.76,-0.92
15:05:42.860,74.34,-21.58,-126.76,-0.93
15:05:42.972,57.07,-22.33,-109.33,-0.93
15:05:42.975,57.07,-22.33,-109.33,-0.94
15:05:43.087,19.3,-22.48,-71.73,-0.94
15:05:43.090,19.3,-22.48,-71.73,-0.94
15:05:43.201,-7.2,-21.97,-45.08,-0.94
15:05:43.204,-7.2,-21.97,-45.08,-0.95
15:05:43.316,-17.38,-21.34,-34.68,-0.95
15:05:43.319,-17.38,-21.34,-34.68,-0.96
15:05:43.431,-16.26,-21.02,-35.64,-0.96
15:05:43.434,-16.26,-21.02,-35.64,-0.96
15:05:43.546,-5.82,-20.7,-45.81,-0.96
15:05:43.548,-5.82,-20.7,-45.81,-0.97
15:05:43.660,-5.82,-20.7,-45.81,-0.97
15:05:43.663,-5.82,-20.7,-45.81,-0.97
15:05:43.775,4.61,-19.36,-56.21,-0.97
15:05:43.778,4.61,-19.36,-56.21,-0.98
15:05:43.890,8.5,-18.18,-60.18,-0.98
15:05:43.892,8.5,-18.18,-60.18,-0.99
15:05:44.004,7.91,-17.23,-59.65,-0.99
15:05:44.007,7.91,-17.23,-59.65,-0.99
15:05:44.119,7.91,-17.23,-59.65,-0.99
15:05:44.122,7.91,-17.23,-59.65,-0.99
15:05:44.234,6.57,-16.67,-58.86,-0.99
15:05:44.236,6.57,-16.67,-58.86,-1.0
15:05:44.348,4.89,-16.15,-57.83,-1.0
15:05:44.351,4.89,-16.15,-57.83,-1.0
15:05:44.463,3.5,-15.39,-57.14,-1.0
15:05:44.466,3.5,-15.39,-57.14,-1.01
15:05:44.578,3.5,-15.39,-57.14,-1.01
15:05:44.581,3.5,-15.39,-57.14,-1.01
15:05:44.692,-0.37,-13.97,-54.42,-1.01
15:05:44.695,-0.37,-13.97,-54.42,-1.02
15:05:44.807,-1.32,-13.43,-53.63,-1.02
15:05:44.811,-1.32,-13.43,-53.63,-1.02
15:05:44.922,-0.89,-12.77,-53.98,-1.02
15:05:44.925,-0.89,-12.77,-53.98,-1.02
15:05:45.037,-0.99,-11.93,-53.86,-1.02
15:05:45.039,-0.99,-11.93,-53.86,-1.02
15:05:45.151,-1.73,-11.0,-53.35,-1.02
15:05:45.155,-1.73,-11.0,-53.35,-1.02
15:05:45.266,-2.17,-10.0,-53.55,-1.02
15:05:45.269,-2.17,-10.0,-53.55,-1.03
15:05:45.381,-2.0,-9.21,-54.52,-1.03
15:05:45.383,-2.0,-9.21,-54.52,-1.03
15:05:45.495,-2.24,-8.76,-54.86,-1.03
15:05:45.498,-2.24,-8.76,-54.86,-1.03
15:05:45.610,-2.24,-8.76,-54.86,-1.03
15:05:45.613,-2.24,-8.76,-54.86,-1.03
15:05:45.725,-3.49,-7.08,-54.36,-1.03
15:05:45.727,-3.49,-7.08,-54.36,-1.04
15:05:45.839,-4.1,-6.12,-53.67,-1.04
15:05:45.843,-4.1,-6.12,-53.67,-1.05
15:05:45.954,-4.17,-5.5,-53.37,-1.05
15:05:45.957,-4.17,-5.5,-53.37,-1.05
15:05:46.069,-4.17,-5.5,-53.37,-1.05
15:05:46.073,-4.17,-5.5,-53.37,-1.05
15:05:46.183,-4.65,-4.27,-53.17,-1.05
15:05:46.186,-4.65,-4.27,-53.17,-1.06
15:05:46.298,-4.99,-3.45,-53.47,-1.06
15:05:46.301,-4.99,-3.45,-53.47,-1.06
15:05:46.413,-4.81,-2.5,-54.13,-1.06
15:05:46.416,-4.81,-2.5,-54.13,-1.07
15:05:46.528,-4.86,-1.72,-54.18,-1.07
15:05:46.531,-4.86,-1.72,-54.18,-1.07
15:05:46.644,-4.36,-0.87,-54.67,-1.07
15:05:46.647,-4.36,-0.87,-54.67,-1.08
15:05:46.760,-3.9,-0.62,-55.38,-1.08
15:05:46.764,-3.9,-0.62,-55.38,-1.08
15:05:46.874,-4.62,-0.57,-55.11,-1.08
15:05:46.881,-4.62,-0.57,-55.11,-1.08
15:05:46.988,-4.23,-0.68,-55.71,-1.08
15:05:46.991,-4.23,-0.68,-55.71,-1.09
15:05:47.106,-3.67,-0.86,-56.17,-1.09
15:05:47.110,-3.67,-0.86,-56.17,-1.09
15:05:47.218,-4.7,-0.37,-55.1,-1.09
15:05:47.227,-4.7,-0.37,-55.1,-1.09
15:05:47.334,-4.7,-0.37,-55.1,-1.09
15:05:47.342,-4.7,-0.37,-55.1,-1.09
15:05:47.450,-5.18,-0.93,-55.24,-1.09
15:05:47.456,-5.18,-0.93,-55.24,-1.1
15:05:47.565,-5.32,-0.31,-55.61,-1.1
15:05:47.573,-5.32,-0.31,-55.61,-1.11
15:05:47.681,-5.48,-0.62,-55.64,-1.11
15:05:47.689,-5.48,-0.62,-55.64,-1.11
15:05:47.797,-5.48,-0.62,-55.64,-1.11
15:05:47.805,-5.48,-0.62,-55.64,-1.11
15:05:47.913,-5.48,-0.62,-55.64,-1.11
15:05:47.922,-5.48,-0.62,-55.64,-1.11
15:05:48.028,-3.32,-0.33,-57.08,-1.11
15:05:48.038,-3.32,-0.33,-57.08,-1.13
15:05:48.144,-3.42,-0.23,-57.29,-1.13
15:05:48.151,-3.42,-0.23,-57.29,-1.14
15:05:48.265,-3.42,-0.23,-57.29,-1.14
15:05:48.274,-3.42,-0.23,-57.29,-1.14
15:05:48.377,-4.58,-0.34,-56.69,-1.14
15:05:48.385,-4.58,-0.34,-56.69,-1.15
15:05:48.495,-4.58,-0.34,-56.69,-1.15
15:05:48.502,-4.58,-0.34,-56.69,-1.15
15:05:48.611,-5.05,-0.3,-56.48,-1.15
15:05:48.619,-5.05,-0.3,-56.48,-1.16
15:05:48.717,-5.05,-0.3,-56.48,-1.16
15:05:48.736,-5.05,-0.3,-56.48,-1.16
15:05:48.834,-5.05,-0.3,-56.48,-1.16
15:05:48.846,-5.05,-0.3,-56.48,-1.16
15:05:48.940,-5.05,-0.3,-56.48,-1.16
15:05:48.960,-5.05,-0.3,-56.48,-1.16
15:05:49.058,-5.05,-0.3,-56.48,-1.16
15:05:49.082,-5.05,-0.3,-56.48,-1.16
15:05:49.169,-5.05,-0.3,-56.48,-1.16
15:05:49.179,-5.05,-0.3,-56.48,-1.16
15:05:49.283,-5.05,-0.3,-56.48,-1.16
15:05:49.310,-5.05,-0.3,-56.48,-1.16
15:05:49.399,-5.05,-0.3,-56.48,-1.16
15:05:49.405,-5.05,-0.3,-56.48,-1.16
15:05:49.514,-5.05,-0.3,-56.48,-1.16
15:05:49.540,-5.05,-0.3,-56.48,-1.16
15:05:49.628,-5.05,-0.3,-56.48,-1.16
15:05:49.652,-5.05,-0.3,-56.48,-1.16
15:05:49.741,-5.05,-0.3,-56.48,-1.16
15:05:49.763,-5.05,-0.3,-56.48,-1.16
15:05:49.859,-5.05,-0.3,-56.48,-1.16
15:05:49.865,-5.05,-0.3,-56.48,-1.16
15:05:49.977,-5.05,-0.3,-56.48,-1.16
15:05:49.983,-5.05,-0.3,-56.48,-1.16
15:05:50.089,-5.05,-0.3,-56.48,-1.16
15:05:50.114,-5.05,-0.3,-56.48,-1.16
15:05:50.204,-5.05,-0.3,-56.48,-1.16
15:05:50.212,-5.05,-0.3,-56.48,-1.16
15:05:50.319,-5.05,-0.3,-56.48,-1.16
15:05:50.329,-5.05,-0.3,-56.48,-1.16
15:05:50.434,-5.05,-0.3,-56.48,-1.16
15:05:50.445,-5.05,-0.3,-56.48,-1.16
15:05:50.549,-5.05,-0.3,-56.48,-1.16
15:05:50.559,-5.05,-0.3,-56.48,-1.16
15:05:50.666,-5.05,-0.3,-56.48,-1.16
15:05:50.676,-5.05,-0.3,-56.48,-1.16
15:05:50.782,-5.05,-0.3,-56.48,-1.16
15:05:50.788,-5.05,-0.3,-56.48,-1.16
15:05:50.899,-1.87,-0.66,-61.02,-1.16
15:05:50.910,-1.87,-0.66,-61.02,-1.29
15:05:51.020,-2.27,-0.13,-60.88,-1.29
15:05:51.031,-2.27,-0.13,-60.88,-1.3
15:05:51.134,-2.83,-0.21,-60.64,-1.3
15:05:51.145,-2.83,-0.21,-60.64,-1.3
15:05:51.265,-2.42,-0.17,-61.33,-1.3
15:05:51.276,-2.42,-0.17,-61.33,-1.3
15:05:51.353,-1.82,-0.37,-62.22,-1.3
15:05:51.365,-1.82,-0.37,-62.22,-1.31
15:05:51.481,-2.93,-0.32,-61.52,-1.31
15:05:51.492,-2.93,-0.32,-61.52,-1.31
15:05:51.602,-3.11,-0.46,-61.56,-1.31
15:05:51.613,-3.11,-0.46,-61.56,-1.32
15:05:51.709,-3.11,-0.46,-61.56,-1.32
15:05:51.721,-3.11,-0.46,-61.56,-1.32
15:05:51.832,-3.16,-0.31,-61.89,-1.32
15:05:51.842,-3.16,-0.31,-61.89,-1.32
15:05:51.948,-2.66,-0.36,-62.54,-1.32
15:05:51.959,-2.66,-0.36,-62.54,-1.33
15:05:52.033,-2.78,-0.39,-62.57,-1.33
15:05:52.073,-2.78,-0.39,-62.57,-1.33
15:05:52.147,-2.32,-0.43,-63.1,-1.33
15:05:52.182,-2.32,-0.43,-63.1,-1.33
15:05:52.290,-2.46,-0.23,-63.08,-1.33
15:05:52.301,-2.46,-0.23,-63.08,-1.34
15:05:52.377,-2.71,-0.23,-63.05,-1.34
15:05:52.413,-2.71,-0.23,-63.05,-1.34
15:05:52.491,-2.71,-0.23,-63.05,-1.34
15:05:52.494,-2.71,-0.23,-63.05,-1.34
15:05:52.606,-3.48,-0.53,-62.81,-1.34
15:05:52.609,-3.48,-0.53,-62.81,-1.35
15:05:52.721,-2.97,-0.45,-63.43,-1.35
15:05:52.724,-2.97,-0.45,-63.43,-1.35
15:05:52.836,-2.97,-0.45,-63.43,-1.35
15:05:52.838,-2.97,-0.45,-63.43,-1.35
15:05:52.951,-1.91,-0.16,-64.34,-1.35
15:05:52.954,-1.91,-0.16,-64.34,-1.36
15:05:53.065,-1.64,-0.49,-64.58,-1.36
15:05:53.068,-1.64,-0.49,-64.58,-1.36
15:05:53.180,-1.64,-0.49,-64.58,-1.36
15:05:53.182,-1.64,-0.49,-64.58,-1.36
15:05:53.294,-2.42,-0.06,-64.35,-1.36
15:05:53.297,-2.42,-0.06,-64.35,-1.37
15:05:53.409,-2.42,-0.06,-64.35,-1.37
15:05:53.412,-2.42,-0.06,-64.35,-1.37
15:05:53.524,-2.72,-0.02,-64.54,-1.37
15:05:53.531,-2.72,-0.02,-64.54,-1.38
15:05:53.639,-2.16,-0.31,-65.2,-1.38
15:05:53.641,-2.16,-0.31,-65.2,-1.38
15:05:53.753,-2.94,-0.45,-64.73,-1.38
15:05:53.756,-2.94,-0.45,-64.73,-1.38
15:05:53.868,-2.67,-0.19,-65.35,-1.38
15:05:53.871,-2.67,-0.19,-65.35,-1.39
15:05:53.983,-2.89,-0.32,-65.59,-1.39
15:05:53.986,-2.89,-0.32,-65.59,-1.38
15:05:54.097,-3.14,-0.35,-65.59,-1.38
15:05:54.100,-3.14,-0.35,-65.59,-1.38
15:05:54.212,-2.68,-0.41,-66.09,-1.38
15:05:54.215,-2.68,-0.41,-66.09,-1.38
15:05:54.327,-3.87,-0.32,-65.17,-1.38
15:05:54.329,-3.87,-0.32,-65.17,-1.37
15:05:54.441,-3.87,-0.32,-65.17,-1.37
15:05:54.444,-3.87,-0.32,-65.17,-1.37
15:05:54.556,-3.39,-0.19,-66.2,-1.37
15:05:54.559,-3.39,-0.19,-66.2,-1.36
15:05:54.671,-3.94,-0.46,-65.88,-1.36
15:05:54.673,-3.94,-0.46,-65.88,-1.36
15:05:54.786,-3.02,-0.81,-66.76,-1.36
15:05:54.788,-3.02,-0.81,-66.76,-1.36
15:05:54.900,-3.02,-0.81,-66.76,-1.36
15:05:54.903,-3.02,-0.81,-66.76,-1.36
15:05:55.015,-2.97,-0.29,-67.0,-1.36
15:05:55.018,-2.97,-0.29,-67.0,-1.35
15:05:55.130,-3.0,-0.44,-67.16,-1.35
15:05:55.132,-3.0,-0.44,-67.16,-1.35
15:05:55.244,-4.03,-0.22,-66.49,-1.35
15:05:55.247,-4.03,-0.22,-66.49,-1.35
15:05:55.362,-4.24,-0.03,-66.71,-1.35
15:05:55.367,-4.24,-0.03,-66.71,-1.35
15:05:55.478,-3.84,-0.72,-67.4,-1.35
15:05:55.482,-3.84,-0.72,-67.4,-1.35
15:05:55.590,-3.11,-0.31,-68.29,-1.35
15:05:55.593,-3.11,-0.31,-68.29,-1.34
15:05:55.704,-3.11,-0.31,-68.29,-1.34
15:05:55.707,-3.11,-0.31,-68.29,-1.34
15:05:55.820,-3.31,-0.59,-68.64,-1.34
15:05:55.826,-3.31,-0.59,-68.64,-1.34
15:05:55.937,-2.33,-0.94,-69.74,-1.34
15:05:55.943,-2.33,-0.94,-69.74,-1.33
15:05:56.050,-1.57,-1.09,-70.9,-1.33
15:05:56.055,-1.57,-1.09,-70.9,-1.33
15:05:56.173,-2.48,-0.96,-70.6,-1.33
15:05:56.182,-2.48,-0.96,-70.6,-1.33
15:05:56.282,-3.17,-0.93,-70.26,-1.33
15:05:56.291,-3.17,-0.93,-70.26,-1.32
15:05:56.397,-3.63,-0.3,-69.82,-1.32
15:05:56.406,-3.63,-0.3,-69.82,-1.32
15:05:56.512,-3.63,-0.3,-69.82,-1.32
15:05:56.520,-3.63,-0.3,-69.82,-1.32
15:05:56.628,-3.31,-0.33,-70.14,-1.32
15:05:56.637,-3.31,-0.33,-70.14,-1.31
15:05:56.737,-2.27,-0.44,-71.4,-1.31
15:05:56.754,-2.27,-0.44,-71.4,-1.3
15:05:56.861,-3.01,-0.62,-71.16,-1.3
15:05:56.871,-3.01,-0.62,-71.16,-1.3
15:05:56.981,-3.01,-0.62,-71.16,-1.3
15:05:56.988,-3.01,-0.62,-71.16,-1.3
15:05:57.096,-3.71,-0.38,-71.06,-1.3
15:05:57.107,-3.71,-0.38,-71.06,-1.29
15:05:57.213,-3.54,-0.36,-71.15,-1.29
15:05:57.224,-3.54,-0.36,-71.15,-1.29
15:05:57.323,-3.14,-0.37,-71.43,-1.29
15:05:57.331,-3.14,-0.37,-71.43,-1.29
15:05:57.430,-2.73,-0.67,-71.85,-1.29
15:05:57.439,-2.73,-0.67,-71.85,-1.28
15:05:57.550,-2.44,-0.48,-72.35,-1.28
15:05:57.558,-2.44,-0.48,-72.35,-1.28
15:05:57.664,-2.73,-0.41,-72.36,-1.28
15:05:57.673,-2.73,-0.41,-72.36,-1.28
15:05:57.778,-3.4,-0.05,-72.01,-1.28
15:05:57.786,-3.4,-0.05,-72.01,-1.27
15:05:57.900,-2.48,-0.31,-73.05,-1.27
15:05:57.908,-2.48,-0.31,-73.05,-1.27
15:05:58.017,-2.17,-0.3,-73.41,-1.27
15:05:58.025,-2.17,-0.3,-73.41,-1.27
15:05:58.129,-2.58,-0.58,-73.26,-1.27
15:05:58.138,-2.58,-0.58,-73.26,-1.27
15:05:58.244,-2.58,-0.58,-73.26,-1.27
15:05:58.252,-2.58,-0.58,-73.26,-1.27
15:05:58.358,-4.95,-0.7,-71.9,-1.27
15:05:58.365,-4.95,-0.7,-71.9,-1.27
15:05:58.459,-3.68,-0.65,-73.25,-1.27
15:05:58.483,-3.68,-0.65,-73.25,-1.27
15:05:58.573,-4.1,-0.79,-72.78,-1.27
15:05:58.598,-4.1,-0.79,-72.78,-1.27
15:05:58.694,-2.61,-0.52,-74.11,-1.27
15:05:58.720,-2.61,-0.52,-74.11,-1.27
15:05:58.804,-4.12,0.12,-72.95,-1.27
15:05:58.813,-4.12,0.12,-72.95,-1.27
15:05:58.921,-4.12,0.12,-72.95,-1.27
15:05:58.933,-4.12,0.12,-72.95,-1.27
15:05:59.038,-7.31,0.5,-73.0,-1.27
15:05:59.063,-7.31,0.5,-73.0,-1.26
15:05:59.153,-9.93,0.87,-73.57,-1.26
15:05:59.163,-9.93,0.87,-73.57,-1.26
15:05:59.273,-12.73,0.91,-74.43,-1.26
15:05:59.297,-12.73,0.91,-74.43,-1.25
15:05:59.389,-16.08,0.89,-75.27,-1.25
15:05:59.397,-16.08,0.89,-75.27,-1.25
15:05:59.509,-19.55,0.23,-76.45,-1.25
15:05:59.514,-19.55,0.23,-76.45,-1.25
15:05:59.614,-19.55,0.23,-76.45,-1.25
15:05:59.624,-19.55,0.23,-76.45,-1.25
15:05:59.730,-22.13,-1.28,-78.38,-1.25
15:05:59.739,-22.13,-1.28,-78.38,-1.25
15:05:59.845,-22.13,-1.28,-78.38,-1.25
15:05:59.855,-22.13,-1.28,-78.38,-1.25
15:05:59.954,-22.13,-1.28,-78.38,-1.25
15:05:59.963,-22.13,-1.28,-78.38,-1.25
15:06:00.066,-22.13,-1.28,-78.38,-1.25
15:06:00.073,-22.13,-1.28,-78.38,-1.25
15:06:00.186,-22.13,-1.28,-78.38,-1.25
15:06:00.198,-22.13,-1.28,-78.38,-1.25
15:06:00.298,-22.13,-1.28,-78.38,-1.25
15:06:00.310,-22.13,-1.28,-78.38,-1.25
15:06:00.418,-22.13,-1.28,-78.38,-1.25
15:06:00.430,-22.13,-1.28,-78.38,-1.25
15:06:00.533,-22.13,-1.28,-78.38,-1.25
15:06:00.545,-22.13,-1.28,-78.38,-1.25
15:06:00.645,-22.13,-1.28,-78.38,-1.25
15:06:00.654,-22.13,-1.28,-78.38,-1.25
15:06:00.761,-22.13,-1.28,-78.38,-1.25
15:06:00.771,-22.13,-1.28,-78.38,-1.25
15:06:00.878,-22.13,-1.28,-78.38,-1.25
15:06:00.887,-22.13,-1.28,-78.38,-1.25
15:06:01.000,-22.13,-1.28,-78.38,-1.25
15:06:01.012,-22.13,-1.28,-78.38,-1.25
15:06:01.112,-22.13,-1.28,-78.38,-1.25
15:06:01.123,-22.13,-1.28,-78.38,-1.25
15:06:01.219,-22.13,-1.28,-78.38,-1.25
15:06:01.232,-22.13,-1.28,-78.38,-1.25
15:06:01.337,-22.13,-1.28,-78.38,-1.25
15:06:01.347,-22.13,-1.28,-78.38,-1.25
15:06:01.456,-22.13,-1.28,-78.38,-1.25
15:06:01.464,-22.13,-1.28,-78.38,-1.25
15:06:01.563,-22.13,-1.28,-78.38,-1.25
15:06:01.576,-22.13,-1.28,-78.38,-1.25
15:06:01.679,-22.13,-1.28,-78.38,-1.25
15:06:01.690,-22.13,-1.28,-78.38,-1.25
15:06:01.796,-22.13,-1.28,-78.38,-1.25
15:06:01.807,-22.13,-1.28,-78.38,-1.25
15:06:01.906,-22.13,-1.28,-78.38,-1.25
15:06:01.916,-22.13,-1.28,-78.38,-1.25
15:06:02.019,-22.13,-1.28,-78.38,-1.25
15:06:02.030,-22.13,-1.28,-78.38,-1.25
15:06:02.137,12.64,-0.1,-77.95,-1.25
15:06:02.144,12.64,-0.1,-77.95,-1.25
15:06:02.253,13.12,1.18,-76.46,-1.25
15:06:02.261,13.12,1.18,-76.46,-1.25
15:06:02.370,13.12,1.18,-76.46,-1.25
15:06:02.391,13.12,1.18,-76.46,-1.25
15:06:02.486,12.83,2.95,-72.49,-1.25
15:06:02.492,12.83,2.95,-72.49,-1.26
15:06:02.601,12.83,2.95,-72.49,-1.26
15:06:02.610,12.83,2.95,-72.49,-1.26
15:06:02.712,12.83,2.95,-72.49,-1.26
15:06:02.721,12.83,2.95,-72.49,-1.26
15:06:02.832,8.15,4.18,-72.96,-1.26
15:06:02.840,8.15,4.18,-72.96,-1.27
15:06:02.943,8.42,2.52,-80.27,-1.27
15:06:02.952,8.42,2.52,-80.27,-1.27
15:06:03.055,10.0,0.73,-87.96,-1.27
15:06:03.069,10.0,0.73,-87.96,-1.28
15:06:03.178,13.77,-1.99,-96.31,-1.28
15:06:03.193,13.77,-1.99,-96.31,-1.28
15:06:03.293,15.5,-4.44,-102.54,-1.28
15:06:03.303,15.5,-4.44,-102.54,-1.29
15:06:03.414,20.94,-6.85,-112.37,-1.29
15:06:03.425,20.94,-6.85,-112.37,-1.29
15:06:03.523,34.08,-9.01,-128.86,-1.29
15:06:03.533,34.08,-9.01,-128.86,-1.29
15:06:03.641,34.08,-9.01,-128.86,-1.29
15:06:03.656,34.08,-9.01,-128.86,-1.29
15:06:03.732,45.92,-10.91,-143.11,-1.29
15:06:03.772,45.92,-10.91,-143.11,-1.29
15:06:03.847,40.43,-11.53,-136.65,-1.29
15:06:03.849,40.43,-11.53,-136.65,-1.29
15:06:03.962,40.43,-11.53,-136.65,-1.29
15:06:03.964,40.43,-11.53,-136.65,-1.29
15:06:04.076,31.41,-12.49,-125.96,-1.29
15:06:04.079,31.41,-12.49,-125.96,-1.3
15:06:04.191,28.27,-12.39,-122.61,-1.3
15:06:04.194,28.27,-12.39,-122.61,-1.3
15:06:04.306,23.38,-11.61,-117.54,-1.3
15:06:04.308,23.38,-11.61,-117.54,-1.3
15:06:04.421,17.54,-10.78,-111.43,-1.3
15:06:04.423,17.54,-10.78,-111.43,-1.3
15:06:04.535,13.73,-10.25,-107.53,-1.3
15:06:04.538,13.73,-10.25,-107.53,-1.31
15:06:04.650,12.84,-10.21,-107.01,-1.31
15:06:04.653,12.84,-10.21,-107.01,-1.31
15:06:04.765,11.63,-10.17,-106.52,-1.31
15:06:04.767,11.63,-10.17,-106.52,-1.31
15:06:04.879,11.63,-10.17,-106.52,-1.31
15:06:04.882,11.63,-10.17,-106.52,-1.31
15:06:04.994,3.85,-9.04,-99.17,-1.31
15:06:04.997,3.85,-9.04,-99.17,-1.32
15:06:05.109,-2.96,-6.35,-91.57,-1.32
15:06:05.112,-2.96,-6.35,-91.57,-1.32
15:06:05.224,-8.75,-2.19,-84.53,-1.32
15:06:05.226,-8.75,-2.19,-84.53,-1.32
15:06:05.346,-12.69,2.38,-79.19,-1.32
15:06:05.350,-12.69,2.38,-79.19,-1.32
15:06:05.453,-14.82,7.18,-76.07,-1.32
15:06:05.456,-14.82,7.18,-76.07,-1.32
15:06:05.568,-16.63,12.62,-73.24,-1.32
15:06:05.570,-16.63,12.62,-73.24,-1.33
15:06:05.682,-17.64,18.36,-70.87,-1.33
15:06:05.685,-17.64,18.36,-70.87,-1.33
15:06:05.799,-18.37,22.3,-69.6,-1.33
15:06:05.802,-18.37,22.3,-69.6,-1.33
15:06:05.913,-19.58,26.04,-68.46,-1.33
15:06:05.915,-19.58,26.04,-68.46,-1.33
15:06:06.028,-19.58,26.04,-68.46,-1.33
15:06:06.033,-19.58,26.04,-68.46,-1.33
15:06:06.141,-19.0,29.36,-66.98,-1.33
15:06:06.144,-19.0,29.36,-66.98,-1.34
15:06:06.257,-19.24,30.45,-66.57,-1.34
15:06:06.260,-19.24,30.45,-66.57,-1.34
15:06:06.371,-19.87,29.04,-66.76,-1.34
15:06:06.373,-19.87,29.04,-66.76,-1.34
15:06:06.486,-19.07,26.39,-67.89,-1.34
15:06:06.488,-19.07,26.39,-67.89,-1.34
15:06:06.600,-16.03,19.71,-70.84,-1.34
15:06:06.603,-16.03,19.71,-70.84,-1.35
15:06:06.715,-12.88,11.3,-75.12,-1.35
15:06:06.718,-12.88,11.3,-75.12,-1.35
15:06:06.829,-12.88,11.3,-75.12,-1.35
15:06:06.832,-12.88,11.3,-75.12,-1.35
15:06:06.944,-3.81,-4.89,-90.46,-1.35
15:06:06.947,-3.81,-4.89,-90.46,-1.35
15:06:07.059,9.09,-11.82,-107.39,-1.35
15:06:07.061,9.09,-11.82,-107.39,-1.36
15:06:07.175,9.09,-11.82,-107.39,-1.36
15:06:07.177,9.09,-11.82,-107.39,-1.36
15:06:07.293,58.79,-15.51,-162.77,-1.36
15:06:07.300,58.79,-15.51,-162.77,-1.36
15:06:07.409,69.53,-15.17,-173.72,-1.36
15:06:07.417,69.53,-15.17,-173.72,-1.37
15:06:07.529,73.31,-15.02,-176.78,-1.37
15:06:07.538,73.31,-15.02,-176.78,-1.37
15:06:07.647,66.95,-15.16,-169.72,-1.37
15:06:07.655,66.95,-15.16,-169.72,-1.37
15:06:07.758,40.44,-15.43,-142.08,-1.37
15:06:07.766,40.44,-15.43,-142.08,-1.37
15:06:07.881,5.58,-11.9,-105.06,-1.37
15:06:07.890,5.58,-11.9,-105.06,-1.37
15:06:07.995,-7.81,-5.36,-88.81,-1.37
15:06:08.005,-7.81,-5.36,-88.81,-1.37
15:06:08.110,-11.51,1.38,-82.18,-1.37
15:06:08.119,-11.51,1.38,-82.18,-1.38
15:06:08.225,-12.16,7.68,-79.19,-1.38
15:06:08.234,-12.16,7.68,-79.19,-1.38
15:06:08.337,-11.18,12.65,-78.69,-1.38
15:06:08.346,-11.18,12.65,-78.69,-1.39
15:06:08.451,-10.82,15.72,-78.35,-1.39
15:06:08.461,-10.82,15.72,-78.35,-1.39
15:06:08.559,-11.45,18.56,-77.31,-1.39
15:06:08.568,-11.45,18.56,-77.31,-1.39
15:06:08.675,-12.51,21.28,-76.37,-1.39
15:06:08.685,-12.51,21.28,-76.37,-1.4
15:06:08.788,-14.26,23.57,-75.53,-1.4
15:06:08.796,-14.26,23.57,-75.53,-1.4
15:06:08.910,-14.64,23.05,-75.78,-1.4
15:06:08.920,-14.64,23.05,-75.78,-1.4
15:06:09.026,-12.69,18.75,-77.65,-1.4
15:06:09.034,-12.69,18.75,-77.65,-1.41
15:06:09.141,-12.69,18.75,-77.65,-1.41
15:06:09.151,-12.69,18.75,-77.65,-1.41
15:06:09.259,-2.73,2.71,-90.67,-1.41
15:06:09.271,-2.73,2.71,-90.67,-1.41
15:06:09.370,3.39,-4.63,-100.68,-1.41
15:06:09.378,3.39,-4.63,-100.68,-1.41
15:06:09.480,14.7,-10.15,-116.08,-1.41
15:06:09.489,14.7,-10.15,-116.08,-1.42
15:06:09.592,34.38,-13.67,-139.49,-1.42
15:06:09.601,34.38,-13.67,-139.49,-1.42
15:06:09.712,34.38,-13.67,-139.49,-1.42
15:06:09.721,34.38,-13.67,-139.49,-1.42
15:06:09.830,74.52,-14.17,-183.38,-1.42
15:06:09.838,74.52,-14.17,-183.38,-1.43
15:06:09.945,84.65,-12.83,-194.06,-1.43
15:06:09.957,84.65,-12.83,-194.06,-1.43
15:06:10.058,88.11,-11.38,-197.98,-1.43
15:06:10.066,88.11,-11.38,-197.98,-1.44
15:06:10.166,86.29,-10.5,-196.62,-1.44
15:06:10.184,86.29,-10.5,-196.62,-1.45
15:06:10.277,83.3,-11.27,-193.43,-1.45
15:06:10.300,83.3,-11.27,-193.43,-1.46
15:06:10.392,72.0,-13.63,-180.86,-1.46
15:06:10.398,72.0,-13.63,-180.86,-1.46
15:06:10.504,40.19,-15.6,-146.73,-1.46
15:06:10.528,40.19,-15.6,-146.73,-1.47
15:06:10.618,5.89,-13.02,-109.81,-1.47
15:06:10.639,5.89,-13.02,-109.81,-1.48
15:06:10.735,-8.72,-7.35,-93.26,-1.48
15:06:10.757,-8.72,-7.35,-93.26,-1.48
15:06:10.856,-13.0,-0.96,-87.43,-1.48
15:06:10.861,-13.0,-0.96,-87.43,-1.49
15:06:10.965,-13.0,-0.96,-87.43,-1.49
15:06:10.972,-13.0,-0.96,-87.43,-1.49
15:06:11.083,-14.07,4.09,-84.64,-1.49
15:06:11.092,-14.07,4.09,-84.64,-1.49
15:06:11.200,-14.07,4.09,-84.64,-1.49
15:06:11.210,-14.07,4.09,-84.64,-1.49
15:06:11.318,-14.07,4.09,-84.64,-1.49
15:06:11.327,-14.07,4.09,-84.64,-1.49
15:06:11.429,-14.07,4.09,-84.64,-1.49
15:06:11.439,-14.07,4.09,-84.64,-1.49
15:06:11.542,-14.07,4.09,-84.64,-1.49
15:06:11.548,-14.07,4.09,-84.64,-1.49
15:06:11.657,-14.07,4.09,-84.64,-1.49
15:06:11.684,-14.07,4.09,-84.64,-1.49
15:06:11.770,-14.07,4.09,-84.64,-1.49
15:06:11.780,-14.07,4.09,-84.64,-1.49
15:06:11.883,-14.07,4.09,-84.64,-1.49
15:06:11.893,-14.07,4.09,-84.64,-1.49
15:06:11.997,-14.07,4.09,-84.64,-1.49
15:06:12.003,-14.07,4.09,-84.64,-1.49
15:06:12.111,-14.07,4.09,-84.64,-1.49
15:06:12.137,-14.07,4.09,-84.64,-1.49
15:06:12.225,-14.07,4.09,-84.64,-1.49
15:06:12.256,-14.07,4.09,-84.64,-1.49
15:06:12.346,-14.07,4.09,-84.64,-1.49
15:06:12.356,-14.07,4.09,-84.64,-1.49
15:06:12.468,-14.07,4.09,-84.64,-1.49
15:06:12.478,-14.07,4.09,-84.64,-1.49
15:06:12.582,-14.07,4.09,-84.64,-1.49
15:06:12.594,-14.07,4.09,-84.64,-1.49
15:06:12.696,-14.07,4.09,-84.64,-1.49
15:06:12.706,-14.07,4.09,-84.64,-1.49
15:06:12.800,-14.07,4.09,-84.64,-1.49
15:06:12.827,-14.07,4.09,-84.64,-1.49
15:06:12.928,-14.07,4.09,-84.64,-1.49
15:06:12.938,-14.07,4.09,-84.64,-1.49
15:06:13.025,-14.07,4.09,-84.64,-1.49
15:06:13.050,-14.07,4.09,-84.64,-1.49
15:06:13.142,-14.07,4.09,-84.64,-1.49
15:06:13.167,-14.07,4.09,-84.64,-1.49
15:06:13.261,-14.07,4.09,-84.64,-1.49
15:06:13.287,-14.07,4.09,-84.64,-1.49
15:06:13.369,116.11,-8.35,-232.08,-1.49
15:06:13.391,116.11,-8.35,-232.08,-1.44
15:06:13.489,115.5,-7.0,-231.61,-1.44
15:06:13.495,115.5,-7.0,-231.61,-1.44
15:06:13.600,114.73,-6.49,-231.03,-1.44
15:06:13.609,114.73,-6.49,-231.03,-1.42
15:06:13.718,114.73,-6.49,-231.03,-1.42
15:06:13.728,114.73,-6.49,-231.03,-1.42
15:06:13.836,114.64,-7.51,-231.94,-1.42
15:06:13.842,114.64,-7.51,-231.94,-1.4
15:06:13.951,114.64,-7.51,-231.94,-1.4
15:06:13.963,114.64,-7.51,-231.94,-1.4
15:06:14.068,109.16,-8.68,-228.6,-1.4
15:06:14.078,109.16,-8.68,-228.6,-1.37
15:06:14.181,109.16,-8.68,-228.6,-1.37
15:06:14.191,109.16,-8.68,-228.6,-1.37
15:06:14.303,87.6,-14.18,-204.12,-1.37
15:06:14.315,87.6,-14.18,-204.12,-1.34
15:06:14.419,55.07,-16.75,-169.16,-1.34
15:06:14.428,55.07,-16.75,-169.16,-1.32
15:06:14.531,11.02,-14.78,-122.44,-1.32
15:06:14.541,11.02,-14.78,-122.44,-1.31
15:06:14.644,-8.17,-9.02,-100.12,-1.31
15:06:14.660,-8.17,-9.02,-100.12,-1.29
15:06:14.762,-8.17,-9.02,-100.12,-1.29
15:06:14.773,-8.17,-9.02,-100.12,-1.29
15:06:14.879,-8.17,-9.02,-100.12,-1.29
15:06:14.892,-8.17,-9.02,-100.12,-1.29
15:06:15.000,-13.72,7.48,-87.77,-1.29
15:06:15.011,-13.72,7.48,-87.77,-1.24
15:06:15.113,-15.75,11.61,-86.51,-1.24
15:06:15.126,-15.75,11.61,-86.51,-1.22
15:06:15.230,-16.18,14.61,-86.44,-1.22
15:06:15.240,-16.18,14.61,-86.44,-1.2
15:06:15.351,-16.25,17.23,-85.98,-1.2
15:06:15.362,-16.25,17.23,-85.98,-1.18
15:06:15.433,-16.25,17.23,-85.98,-1.18
15:06:15.471,-16.25,17.23,-85.98,-1.18
15:06:15.578,-16.88,19.05,-84.68,-1.18
15:06:15.586,-16.88,19.05,-84.68,-1.15
15:06:15.691,-17.12,17.91,-84.86,-1.15
15:06:15.703,-17.12,17.91,-84.86,-1.13
15:06:15.807,-16.88,15.75,-86.12,-1.13
15:06:15.818,-16.88,15.75,-86.12,-1.12
15:06:15.923,-15.6,12.32,-88.39,-1.12
15:06:15.931,-15.6,12.32,-88.39,-1.1
15:06:16.032,-15.6,12.32,-88.39,-1.1
15:06:16.043,-15.6,12.32,-88.39,-1.1
15:06:16.147,-10.41,2.15,-93.57,-1.1
15:06:16.158,-10.41,2.15,-93.57,-1.07
15:06:16.265,-5.52,-3.64,-98.37,-1.07
15:06:16.281,-5.52,-3.64,-98.37,-1.05
15:06:16.350,-4.68,-7.12,-101.71,-1.05
15:06:16.389,-4.68,-7.12,-101.71,-1.03
15:06:16.465,-10.52,-9.26,-98.24,-1.03
15:06:16.496,-10.52,-9.26,-98.24,-1.02
15:06:16.580,-19.52,-8.94,-89.53,-1.02
15:06:16.620,-19.52,-8.94,-89.53,-1.0
15:06:16.694,-20.08,-6.63,-87.46,-1.0
15:06:16.697,-20.08,-6.63,-87.46,-0.99
15:06:16.809,-20.08,-6.63,-87.46,-0.99
15:06:16.812,-20.08,-6.63,-87.46,-0.99
15:06:16.924,-10.15,-1.2,-95.65,-0.99
15:06:16.927,-10.15,-1.2,-95.65,-0.96
15:06:17.039,-9.77,-0.64,-95.81,-0.96
15:06:17.041,-9.77,-0.64,-95.81,-0.95
15:06:17.153,-7.29,-1.65,-98.47,-0.95
15:06:17.156,-7.29,-1.65,-98.47,-0.93
15:06:17.268,-5.99,-1.9,-99.48,-0.93
15:06:17.271,-5.99,-1.9,-99.48,-0.92
15:06:17.383,-2.92,-2.79,-102.96,-0.92
15:06:17.385,-2.92,-2.79,-102.96,-0.91
15:06:17.497,-2.92,-2.79,-102.96,-0.91
15:06:17.500,-2.92,-2.79,-102.96,-0.91
15:06:17.612,-3.17,-2.69,-103.36,-0.91
15:06:17.615,-3.17,-2.69,-103.36,-0.89
15:06:17.727,-4.03,-2.11,-102.81,-0.89
15:06:17.729,-4.03,-2.11,-102.81,-0.88
15:06:17.841,-4.03,-2.11,-102.81,-0.88
15:06:17.844,-4.03,-2.11,-102.81,-0.88
15:06:17.957,-3.86,-0.95,-103.31,-0.88
15:06:17.959,-3.86,-0.95,-103.31,-0.87
15:06:18.071,-4.47,-0.57,-102.92,-0.87
15:06:18.074,-4.47,-0.57,-102.92,-0.85
15:06:18.186,-4.6,-0.54,-102.98,-0.85
15:06:18.189,-4.6,-0.54,-102.98,-0.84
15:06:18.301,-4.38,-0.61,-103.37,-0.84
15:06:18.304,-4.38,-0.61,-103.37,-0.83
15:06:18.415,-4.38,-0.61,-103.37,-0.83
15:06:18.417,-4.38,-0.61,-103.37,-0.83
15:06:18.530,-4.38,-0.61,-103.37,-0.83
15:06:18.532,-4.38,-0.61,-103.37,-0.83
15:06:18.644,-4.33,-0.55,-103.96,-0.83
15:06:18.647,-4.33,-0.55,-103.96,-0.8
15:06:18.760,-4.41,-0.58,-104.06,-0.8
15:06:18.763,-4.41,-0.58,-104.06,-0.79
15:06:18.874,-4.36,-0.61,-104.28,-0.79
15:06:18.876,-4.36,-0.61,-104.28,-0.78
15:06:18.988,-4.44,-0.59,-104.39,-0.78
15:06:18.991,-4.44,-0.59,-104.39,-0.77
15:06:19.104,-4.38,-0.61,-104.63,-0.77
15:06:19.107,-4.38,-0.61,-104.63,-0.76
15:06:19.218,-4.36,-0.56,-104.82,-0.76
15:06:19.221,-4.36,-0.56,-104.82,-0.75
15:06:19.333,-4.36,-0.56,-104.82,-0.75
15:06:19.335,-4.36,-0.56,-104.82,-0.75
15:06:19.447,-4.32,-0.62,-105.22,-0.75
15:06:19.450,-4.32,-0.62,-105.22,-0.73
15:06:19.562,-4.47,-0.57,-105.26,-0.73
15:06:19.565,-4.47,-0.57,-105.26,-0.71
15:06:19.677,-4.3,-0.54,-105.6,-0.71
15:06:19.679,-4.3,-0.54,-105.6,-0.7
15:06:19.791,-4.34,-0.58,-105.74,-0.7
15:06:19.794,-4.34,-0.58,-105.74,-0.69
15:06:19.906,-4.37,-0.53,-105.9,-0.69
15:06:19.909,-4.37,-0.53,-105.9,-0.68
15:06:20.021,-4.42,-0.58,-106.03,-0.68
15:06:20.024,-4.42,-0.58,-106.03,-0.67
15:06:20.135,-4.34,-0.57,-106.28,-0.67
15:06:20.138,-4.34,-0.57,-106.28,-0.65
15:06:20.250,-4.32,-0.6,-106.48,-0.65
15:06:20.253,-4.32,-0.6,-106.48,-0.64
15:06:20.365,-4.36,-0.56,-106.62,-0.64
15:06:20.368,-4.36,-0.56,-106.62,-0.63
15:06:20.480,-4.39,-0.62,-106.77,-0.63
15:06:20.482,-4.39,-0.62,-106.77,-0.62
15:06:20.594,-4.39,-0.62,-106.77,-0.62
15:06:20.597,-4.39,-0.62,-106.77,-0.62
15:06:20.709,-4.39,-0.62,-106.77,-0.62
15:06:20.711,-4.39,-0.62,-106.77,-0.62
15:06:20.824,-4.36,-0.65,-107.34,-0.62
15:06:20.826,-4.36,-0.65,-107.34,-0.58
15:06:20.938,-4.36,-0.58,-107.52,-0.58
15:06:20.941,-4.36,-0.58,-107.52,-0.58
15:06:21.053,-4.36,-0.58,-107.52,-0.58
15:06:21.056,-4.36,-0.58,-107.52,-0.58
15:06:21.168,-4.54,-0.56,-107.71,-0.58
15:06:21.170,-4.54,-0.56,-107.71,-0.55
15:06:21.282,-4.54,-0.56,-107.71,-0.55
15:06:21.285,-4.54,-0.56,-107.71,-0.55
15:06:21.397,-4.39,-0.55,-108.21,-0.55
15:06:21.400,-4.39,-0.55,-108.21,-0.53
15:06:21.512,-4.29,-0.58,-108.48,-0.53
15:06:21.514,-4.29,-0.58,-108.48,-0.52
15:06:21.626,-4.41,-0.56,-108.55,-0.52
15:06:21.629,-4.41,-0.56,-108.55,-0.51
15:06:21.741,-4.42,-0.56,-108.72,-0.51
15:06:21.744,-4.42,-0.56,-108.72,-0.51
15:06:21.856,-4.41,-0.59,-108.92,-0.51
15:06:21.859,-4.41,-0.59,-108.92,-0.5
15:06:21.971,-4.42,-0.64,-109.08,-0.5
15:06:21.973,-4.42,-0.64,-109.08,-0.49
15:06:22.085,-4.37,-0.61,-109.31,-0.49
15:06:22.088,-4.37,-0.61,-109.31,-0.48
15:06:22.200,-4.37,-0.61,-109.31,-0.48
15:06:22.203,-4.37,-0.61,-109.31,-0.48
15:06:22.315,-4.44,-0.59,-109.43,-0.48
15:06:22.318,-4.44,-0.59,-109.43,-0.48
15:06:22.430,-4.44,-0.59,-109.43,-0.48
15:06:22.433,-4.44,-0.59,-109.43,-0.48
15:06:22.544,-4.44,-0.59,-109.43,-0.48
15:06:22.547,-4.44,-0.59,-109.43,-0.48
15:06:22.659,-4.44,-0.59,-109.43,-0.48
15:06:22.662,-4.44,-0.59,-109.43,-0.48
15:06:22.774,-4.44,-0.59,-109.43,-0.48
15:06:22.776,-4.44,-0.59,-109.43,-0.48
15:06:22.888,-4.44,-0.59,-109.43,-0.48
15:06:22.891,-4.44,-0.59,-109.43,-0.48
15:06:23.003,-4.44,-0.59,-109.43,-0.48
15:06:23.006,-4.44,-0.59,-109.43,-0.48
15:06:23.118,-4.44,-0.59,-109.43,-0.48
15:06:23.121,-4.44,-0.59,-109.43,-0.48
15:06:23.232,-4.44,-0.59,-109.43,-0.48
15:06:23.235,-4.44,-0.59,-109.43,-0.48
15:06:23.347,-4.44,-0.59,-109.43,-0.48
15:06:23.350,-4.44,-0.59,-109.43,-0.48
15:06:23.462,-4.44,-0.59,-109.43,-0.48
15:06:23.464,-4.44,-0.59,-109.43,-0.48
15:06:23.584,-4.44,-0.59,-109.43,-0.48
15:06:23.595,-4.44,-0.59,-109.43,-0.48
15:06:23.749,-4.44,-0.59,-109.43,-0.48
15:06:23.762,-4.44,-0.59,-109.43,-0.48
15:06:23.806,-4.44,-0.59,-109.43,-0.48
15:06:23.831,-4.44,-0.59,-109.43,-0.48
15:06:23.946,-4.44,-0.59,-109.43,-0.48
15:06:23.956,-4.44,-0.59,-109.43,-0.48
15:06:24.064,-4.44,-0.59,-109.43,-0.48
15:06:24.080,-4.44,-0.59,-109.43,-0.48
15:06:24.152,-4.44,-0.59,-109.43,-0.48
15:06:24.156,-4.44,-0.59,-109.43,-0.48
15:06:24.269,-4.44,-0.59,-109.43,-0.48
15:06:24.318,-4.44,-0.59,-109.43,-0.48
15:06:24.381,-4.44,-0.59,-109.43,-0.48
15:06:24.384,-4.44,-0.59,-109.43,-0.48
15:06:24.501,-4.44,-0.59,-109.43,-0.48
15:06:24.512,-4.44,-0.59,-109.43,-0.48
15:06:24.621,-4.34,-0.57,-113.13,-0.48
15:06:24.631,-4.34,-0.57,-113.13,-0.42
15:06:24.726,-4.41,-0.62,-113.25,-0.42
15:06:24.730,-4.41,-0.62,-113.25,-0.42
15:06:24.844,-4.42,-0.62,-113.42,-0.42
15:06:24.850,-4.42,-0.62,-113.42,-0.42
15:06:24.958,-4.4,-0.59,-113.62,-0.42
15:06:24.971,-4.4,-0.59,-113.62,-0.42
15:06:25.079,-4.46,-0.56,-113.74,-0.42
15:06:25.083,-4.46,-0.56,-113.74,-0.42
15:06:25.196,-4.41,-0.59,-113.97,-0.42
15:06:25.209,-4.41,-0.59,-113.97,-0.43
15:06:25.317,-4.41,-0.59,-113.97,-0.43
15:06:25.329,-4.41,-0.59,-113.97,-0.43
15:06:25.412,-4.3,-0.6,-114.44,-0.43
15:06:25.455,-4.3,-0.6,-114.44,-0.43
15:06:25.526,-4.35,-0.61,-114.57,-0.43
15:06:25.560,-4.35,-0.61,-114.57,-0.43
15:06:25.665,-4.35,-0.61,-114.57,-0.43
15:06:25.677,-4.35,-0.61,-114.57,-0.43
15:06:25.781,-4.41,-0.58,-114.87,-0.43
15:06:25.789,-4.41,-0.58,-114.87,-0.45
15:06:25.900,-4.41,-0.58,-114.87,-0.45
15:06:25.912,-4.41,-0.58,-114.87,-0.45
15:06:26.012,-4.4,-0.55,-115.24,-0.45
15:06:26.022,-4.4,-0.55,-115.24,-0.46
15:06:26.128,-4.4,-0.55,-115.24,-0.46
15:06:26.140,-4.4,-0.55,-115.24,-0.46
15:06:26.247,-4.45,-0.59,-115.55,-0.46
15:06:26.257,-4.45,-0.59,-115.55,-0.47
15:06:26.362,-4.45,-0.6,-115.73,-0.47
15:06:26.371,-4.45,-0.6,-115.73,-0.47
15:06:26.472,-4.45,-0.59,-115.92,-0.47
15:06:26.483,-4.45,-0.59,-115.92,-0.48
15:06:26.559,-4.43,-0.57,-116.12,-0.48
15:06:26.591,-4.43,-0.57,-116.12,-0.48
15:06:26.697,-4.43,-0.57,-116.12,-0.48
15:06:26.705,-4.43,-0.57,-116.12,-0.48
15:06:26.814,-4.45,-0.55,-116.45,-0.48
15:06:26.822,-4.45,-0.55,-116.45,-0.5
15:06:26.902,-4.45,-0.55,-116.45,-0.5
15:06:26.905,-4.45,-0.55,-116.45,-0.5
15:06:27.042,-4.43,-0.6,-116.84,-0.5
15:06:27.053,-4.43,-0.6,-116.84,-0.51
15:06:27.157,-4.45,-0.58,-117.0,-0.51
15:06:27.166,-4.45,-0.58,-117.0,-0.51
15:06:27.267,-4.34,-0.59,-117.28,-0.51
15:06:27.277,-4.34,-0.59,-117.28,-0.52
15:06:27.384,-4.34,-0.59,-117.28,-0.52
15:06:27.397,-4.34,-0.59,-117.28,-0.52
15:06:27.497,-4.46,-0.58,-117.53,-0.52
15:06:27.510,-4.46,-0.58,-117.53,-0.53
15:06:27.602,-4.32,-0.6,-117.84,-0.53
15:06:27.613,-4.32,-0.6,-117.84,-0.53
15:06:27.716,-4.32,-0.6,-117.84,-0.53
15:06:27.727,-4.32,-0.6,-117.84,-0.53
15:06:27.831,-4.37,-0.6,-118.15,-0.53
15:06:27.839,-4.37,-0.6,-118.15,-0.53
15:06:27.949,-4.37,-0.6,-118.15,-0.53
15:06:27.959,-4.37,-0.6,-118.15,-0.53
15:06:28.056,-4.37,-0.58,-118.52,-0.53
15:06:28.066,-4.37,-0.58,-118.52,-0.53
15:06:28.174,-4.37,-0.58,-118.52,-0.53
15:06:28.203,-4.37,-0.58,-118.52,-0.53
15:06:28.286,-4.3,-0.62,-118.94,-0.53
15:06:28.295,-4.3,-0.62,-118.94,-0.54
15:06:28.404,-4.35,-0.59,-119.08,-0.54
15:06:28.436,-4.35,-0.59,-119.08,-0.54
15:06:28.512,-4.4,-0.58,-119.21,-0.54
15:06:28.540,-4.4,-0.58,-119.21,-0.55
15:06:28.635,-4.4,-0.58,-119.21,-0.55
15:06:28.645,-4.4,-0.58,-119.21,-0.55
15:06:28.749,-4.43,-0.61,-119.54,-0.55
15:06:28.760,-4.43,-0.61,-119.54,-0.55
15:06:28.866,-4.4,-0.6,-119.75,-0.55
15:06:28.876,-4.4,-0.6,-119.75,-0.55
15:06:28.976,-4.34,-0.62,-119.99,-0.55
15:06:28.982,-4.34,-0.62,-119.99,-0.55
15:06:29.094,-4.45,-0.57,-120.07,-0.55
15:06:29.111,-4.45,-0.57,-120.07,-0.55
15:06:29.220,-4.45,-0.57,-120.07,-0.55
15:06:29.229,-4.45,-0.57,-120.07,-0.55
15:06:29.327,-4.32,-0.58,-120.55,-0.55
15:06:29.339,-4.32,-0.58,-120.55,-0.56
15:06:29.459,-4.45,-0.59,-120.61,-0.56
15:06:29.470,-4.45,-0.59,-120.61,-0.57
15:06:29.576,-4.29,-0.57,-120.94,-0.57
15:06:29.589,-4.29,-0.57,-120.94,-0.57
15:06:29.685,-4.32,-0.6,-121.09,-0.57
15:06:29.698,-4.32,-0.6,-121.09,-0.57
15:06:29.770,-4.32,-0.6,-121.09,-0.57
15:06:29.804,-4.32,-0.6,-121.09,-0.57
15:06:29.919,-4.39,-0.57,-121.38,-0.57
15:06:29.932,-4.39,-0.57,-121.38,-0.58
15:06:30.029,-4.31,-0.61,-121.65,-0.58
15:06:30.040,-4.31,-0.61,-121.65,-0.58
15:06:30.140,-4.41,-0.58,-121.73,-0.58
15:06:30.152,-4.41,-0.58,-121.73,-0.58
15:06:30.260,-4.41,-0.58,-121.73,-0.58
15:06:30.271,-4.41,-0.58,-121.73,-0.58
15:06:30.372,-4.44,-0.55,-122.07,-0.58
15:06:30.384,-4.44,-0.55,-122.07,-0.59
15:06:30.485,-4.43,-0.63,-122.26,-0.59
15:06:30.493,-4.43,-0.63,-122.26,-0.59
15:06:30.596,-4.38,-0.56,-122.49,-0.59
15:06:30.606,-4.38,-0.56,-122.49,-0.59
15:06:30.711,-4.5,-0.56,-122.56,-0.59
15:06:30.722,-4.5,-0.56,-122.56,-0.59
15:06:30.817,-4.37,-0.6,-122.86,-0.59
15:06:30.832,-4.37,-0.6,-122.86,-0.6
15:06:30.935,-4.37,-0.6,-122.86,-0.6
15:06:30.947,-4.37,-0.6,-122.86,-0.6
15:06:31.044,-4.39,-0.61,-123.2,-0.6
15:06:31.055,-4.39,-0.61,-123.2,-0.6
15:06:31.167,-4.3,-0.59,-123.47,-0.6
15:06:31.180,-4.3,-0.59,-123.47,-0.61
15:06:31.281,-4.3,-0.59,-123.47,-0.61
15:06:31.295,-4.3,-0.59,-123.47,-0.61
15:06:31.401,-4.5,-0.55,-123.65,-0.61
15:06:31.413,-4.5,-0.55,-123.65,-0.61
15:06:31.521,-4.37,-0.61,-123.95,-0.61
15:06:31.528,-4.37,-0.61,-123.95,-0.61
15:06:31.628,-4.31,-0.58,-124.18,-0.61
15:06:31.639,-4.31,-0.58,-124.18,-0.62
15:06:31.741,-4.41,-0.57,-124.27,-0.62
15:06:31.751,-4.41,-0.57,-124.27,-0.62
15:06:31.849,-4.41,-0.57,-124.27,-0.62
15:06:31.859,-4.41,-0.57,-124.27,-0.62
15:06:31.962,-4.37,-0.61,-124.66,-0.62
15:06:31.973,-4.37,-0.61,-124.66,-0.62
15:06:32.079,-4.37,-0.53,-124.85,-0.62
15:06:32.089,-4.37,-0.53,-124.85,-0.62
15:06:32.188,-4.38,-0.6,-125.02,-0.62
15:06:32.196,-4.38,-0.6,-125.02,-0.63
15:06:32.307,-4.34,-0.61,-125.23,-0.63
15:06:32.313,-4.34,-0.61,-125.23,-0.63
15:06:32.424,-4.45,-0.6,-125.32,-0.63
15:06:32.452,-4.45,-0.6,-125.32,-0.63
15:06:32.530,-4.45,-0.6,-125.32,-0.63
15:06:32.541,-4.45,-0.6,-125.32,-0.63
15:06:32.642,-4.4,-0.61,-125.72,-0.63
15:06:32.668,-4.4,-0.61,-125.72,-0.64
15:06:32.771,-4.39,-0.59,-125.91,-0.64
15:06:32.782,-4.39,-0.59,-125.91,-0.65
15:06:32.867,-4.37,-0.61,-126.11,-0.65
15:06:32.894,-4.37,-0.61,-126.11,-0.65
15:06:32.999,-4.37,-0.61,-126.11,-0.65
15:06:33.009,-4.37,-0.61,-126.11,-0.65
15:06:33.115,-4.36,-0.59,-126.48,-0.65
15:06:33.124,-4.36,-0.59,-126.48,-0.66
15:06:33.227,-4.49,-0.55,-126.54,-0.66
15:06:33.233,-4.49,-0.55,-126.54,-0.66
15:06:33.343,-4.49,-0.55,-126.54,-0.66
15:06:33.352,-4.49,-0.55,-126.54,-0.66
15:06:33.441,-4.35,-0.61,-126.86,-0.66
15:06:33.467,-4.35,-0.61,-126.86,-0.66
15:06:33.557,-4.35,-0.61,-126.86,-0.66
15:06:33.586,-4.35,-0.61,-126.86,-0.66
15:06:33.688,-4.35,-0.61,-126.86,-0.66
15:06:33.699,-4.35,-0.61,-126.86,-0.66
15:06:33.788,-4.35,-0.61,-126.86,-0.66
15:06:33.812,-4.35,-0.61,-126.86,-0.66
15:06:33.907,-4.35,-0.61,-126.86,-0.66
15:06:33.917,-4.35,-0.61,-126.86,-0.66
15:06:34.022,-4.35,-0.61,-126.86,-0.66
15:06:34.030,-4.35,-0.61,-126.86,-0.66
15:06:34.134,-4.35,-0.61,-126.86,-0.66
15:06:34.146,-4.35,-0.61,-126.86,-0.66
15:06:34.250,-4.35,-0.61,-126.86,-0.66
15:06:34.260,-4.35,-0.61,-126.86,-0.66
15:06:34.362,-4.35,-0.61,-126.86,-0.66
15:06:34.368,-4.35,-0.61,-126.86,-0.66
15:06:34.485,-4.35,-0.61,-126.86,-0.66
15:06:34.497,-4.35,-0.61,-126.86,-0.66
15:06:34.595,-4.35,-0.61,-126.86,-0.66
15:06:34.601,-4.35,-0.61,-126.86,-0.66
15:06:34.713,-4.35,-0.61,-126.86,-0.66
15:06:34.722,-4.35,-0.61,-126.86,-0.66
15:06:34.825,-4.35,-0.61,-126.86,-0.66
15:06:34.835,-4.35,-0.61,-126.86,-0.66
15:06:34.941,-4.35,-0.61,-126.86,-0.66
15:06:34.952,-4.35,-0.61,-126.86,-0.66
15:06:35.056,-4.35,-0.61,-126.86,-0.66
15:06:35.066,-4.35,-0.61,-126.86,-0.66
15:06:35.176,-4.35,-0.61,-126.86,-0.66
15:06:35.187,-4.35,-0.61,-126.86,-0.66
15:06:35.285,-4.35,-0.61,-126.86,-0.66
15:06:35.294,-4.35,-0.61,-126.86,-0.66
15:06:35.412,-4.35,-0.61,-126.86,-0.66
15:06:35.424,-4.35,-0.61,-126.86,-0.66
15:06:35.520,-4.35,-0.61,-126.86,-0.66
15:06:35.528,-4.35,-0.61,-126.86,-0.66
15:06:35.640,-4.35,-0.61,-126.86,-0.66
15:06:35.651,-4.35,-0.61,-126.86,-0.66
15:06:35.753,-4.42,-0.57,-130.39,-0.66
15:06:35.765,-4.42,-0.57,-130.39,-0.74
15:06:35.870,-4.42,-0.57,-130.39,-0.74
15:06:35.883,-4.42,-0.57,-130.39,-0.74
15:06:35.988,-4.4,-0.59,-130.78,-0.74
15:06:36.003,-4.4,-0.59,-130.78,-0.74
15:06:36.106,-4.39,-0.6,-130.97,-0.74
15:06:36.117,-4.39,-0.6,-130.97,-0.75
15:06:36.220,-4.46,-0.6,-131.08,-0.75
15:06:36.232,-4.46,-0.6,-131.08,-0.74
15:06:36.307,-4.46,-0.6,-131.08,-0.74
15:06:36.343,-4.46,-0.6,-131.08,-0.74
15:06:36.422,-4.37,-0.59,-131.53,-0.74
15:06:36.464,-4.37,-0.59,-131.53,-0.74
15:06:36.536,-4.37,-0.59,-131.53,-0.74
15:06:36.539,-4.37,-0.59,-131.53,-0.74
15:06:36.651,-4.33,-0.58,-131.92,-0.74
15:06:36.654,-4.33,-0.58,-131.92,-0.74
15:06:36.766,-4.4,-0.57,-132.04,-0.74
15:06:36.769,-4.4,-0.57,-132.04,-0.74
15:06:36.880,-4.4,-0.57,-132.04,-0.74
15:06:36.883,-4.4,-0.57,-132.04,-0.74
15:06:36.995,-4.39,-0.61,-132.4,-0.74
15:06:36.998,-4.39,-0.61,-132.4,-0.74
15:06:37.110,-4.31,-0.58,-132.66,-0.74
15:06:37.113,-4.31,-0.58,-132.66,-0.74
15:06:37.225,-4.3,-0.64,-132.85,-0.74
15:06:37.228,-4.3,-0.64,-132.85,-0.74
15:06:37.339,-4.4,-0.57,-132.93,-0.74
15:06:37.342,-4.4,-0.57,-132.93,-0.74
15:06:37.454,-4.31,-0.65,-133.2,-0.74
15:06:37.468,-4.31,-0.65,-133.2,-0.74
15:06:37.569,-4.8,-0.58,-132.89,-0.74
15:06:37.572,-4.8,-0.58,-132.89,-0.74
15:06:37.683,-5.11,-0.19,-132.78,-0.74
15:06:37.723,-5.11,-0.19,-132.78,-0.74
15:06:37.798,-7.98,1.29,-130.6,-0.74
15:06:37.831,-7.98,1.29,-130.6,-0.74
15:06:37.913,-9.37,2.08,-131.27,-0.74
15:06:37.916,-9.37,2.08,-131.27,-0.73
15:06:38.028,-9.88,0.15,-133.71,-0.73
15:06:38.030,-9.88,0.15,-133.71,-0.73
15:06:38.142,-10.9,-2.28,-134.85,-0.73
15:06:38.145,-10.9,-2.28,-134.85,-0.73
15:06:38.257,-10.9,-2.28,-134.85,-0.73
15:06:38.260,-10.9,-2.28,-134.85,-0.73
15:06:38.372,-14.1,-3.73,-132.7,-0.73
15:06:38.375,-14.1,-3.73,-132.7,-0.73
15:06:38.487,-13.67,-2.18,-132.81,-0.73
15:06:38.490,-13.67,-2.18,-132.81,-0.73
15:06:38.601,-13.67,-2.18,-132.81,-0.73
15:06:38.604,-13.67,-2.18,-132.81,-0.73
15:06:38.716,-10.28,-1.22,-134.67,-0.73
15:06:38.718,-10.28,-1.22,-134.67,-0.73
15:06:38.831,-10.28,-1.22,-134.67,-0.73
15:06:38.833,-10.28,-1.22,-134.67,-0.73
15:06:38.945,-6.67,-2.07,-136.4,-0.73
15:06:38.948,-6.67,-2.07,-136.4,-0.72
15:06:39.060,-6.37,-1.77,-137.05,-0.72
15:06:39.064,-6.37,-1.77,-137.05,-0.72
15:06:39.175,-6.03,-0.88,-137.77,-0.72
15:06:39.178,-6.03,-0.88,-137.77,-0.72
15:06:39.289,-5.15,-0.65,-139.34,-0.72
15:06:39.292,-5.15,-0.65,-139.34,-0.72
15:06:39.404,-6.82,-0.56,-139.58,-0.72
15:06:39.407,-6.82,-0.56,-139.58,-0.71
15:06:39.519,-9.29,-0.9,-139.44,-0.71
15:06:39.522,-9.29,-0.9,-139.44,-0.71
