Time,Roll_X(deg),Pitch_Y(deg),Yaw_Z(deg),Altitude(m)
15:00:25.066,25.79,-66.47,331.94,0.0
15:00:25.069,25.79,-66.47,331.94,33.32
15:00:25.183,25.79,-66.47,331.94,33.32
15:00:25.197,25.79,-66.47,331.94,33.32
15:00:25.304,25.97,-66.56,327.99,33.32
15:00:25.319,25.97,-66.56,327.99,33.34
15:00:25.420,25.97,-66.56,327.99,33.34
15:00:25.433,25.97,-66.56,327.99,33.34
15:00:25.531,25.98,-66.49,327.64,33.34
15:00:25.543,25.98,-66.49,327.64,33.34
15:00:25.651,25.98,-66.49,327.64,33.34
15:00:25.663,25.98,-66.49,327.64,33.34
15:00:25.779,25.98,-66.49,327.64,33.34
15:00:25.790,25.98,-66.49,327.64,33.34
15:00:25.894,25.98,-66.49,327.64,33.34
15:00:25.906,25.98,-66.49,327.64,33.34
15:00:26.012,25.98,-66.49,327.64,33.34
15:00:26.024,25.98,-66.49,327.64,33.34
15:00:26.128,25.93,-66.53,326.78,33.34
15:00:26.139,25.93,-66.53,326.78,33.34
15:00:26.238,0.0,0.0,0.0,0.0
15:00:26.250,0.0,0.0,0.0,0.0
15:00:26.328,0.0,0.0,0.0,0.0
15:00:26.364,0.0,0.0,0.0,0.0
15:00:26.442,0.0,0.0,0.0,0.0
15:00:26.445,0.0,0.0,0.0,0.0
15:00:26.557,0.0,0.0,0.0,0.0
15:00:26.560,0.0,0.0,0.0,0.0
15:00:26.672,0.0,0.0,0.0,0.0
15:00:26.675,0.0,0.0,0.0,0.0
15:00:26.786,0.0,0.0,0.0,0.0
15:00:26.789,0.0,0.0,0.0,0.0
15:00:26.901,0.0,0.0,0.0,0.0
15:00:26.904,0.0,0.0,0.0,0.0
15:00:27.016,0.0,0.0,0.0,0.0
15:00:27.018,0.0,0.0,0.0,0.0
15:00:27.130,0.0,0.0,0.0,0.0
15:00:27.133,0.0,0.0,0.0,0.0
15:00:27.245,0.0,0.0,0.0,0.0
15:00:27.248,0.0,0.0,0.0,0.0
15:00:27.360,0.0,0.0,0.0,0.0
15:00:27.362,0.0,0.0,0.0,0.0
15:00:27.474,0.0,0.0,0.0,0.0
15:00:27.477,0.0,0.0,0.0,0.0
15:00:27.589,0.0,0.0,0.0,0.0
15:00:27.592,0.0,0.0,0.0,0.0
15:00:27.704,0.0,0.0,0.0,0.0
15:00:27.707,0.0,0.0,0.0,0.0
15:00:27.818,0.0,0.0,0.0,0.0
15:00:27.821,0.0,0.0,0.0,0.0
15:00:27.933,0.0,0.0,0.0,0.0
15:00:27.936,0.0,0.0,0.0,0.0
15:00:28.048,0.0,0.0,0.0,0.0
15:00:28.050,0.0,0.0,0.0,0.0
15:00:28.162,0.0,0.0,0.0,0.0
15:00:28.165,0.0,0.0,0.0,0.0
15:00:28.277,-0.17,-0.01,-3.28,0.0
15:00:28.280,-0.17,-0.01,-3.28,-0.03
15:00:28.392,-0.17,-0.01,-3.28,-0.03
15:00:28.395,-0.17,-0.01,-3.28,-0.03
15:00:28.506,-0.17,-0.01,-3.28,-0.03
15:00:28.509,-0.17,-0.01,-3.28,-0.03
15:00:28.621,-0.16,0.02,-3.84,-0.03
15:00:28.624,-0.16,0.02,-3.84,-0.03
15:00:28.736,-0.16,0.02,-3.84,-0.03
15:00:28.738,-0.16,0.02,-3.84,-0.03
15:00:28.850,-0.16,0.02,-3.84,-0.03
15:00:28.854,-0.16,0.02,-3.84,-0.03
15:00:28.965,-0.21,-0.07,-4.33,-0.03
15:00:28.968,-0.21,-0.07,-4.33,-0.04
15:00:29.080,0.02,-0.09,-4.71,-0.04
15:00:29.083,0.02,-0.09,-4.71,-0.04
15:00:29.194,0.02,-0.09,-4.71,-0.04
15:00:29.197,0.02,-0.09,-4.71,-0.04
15:00:29.309,0.02,-0.09,-4.71,-0.04
15:00:29.312,0.02,-0.09,-4.71,-0.04
15:00:29.424,-0.25,-0.12,-5.05,-0.04
15:00:29.427,-0.25,-0.12,-5.05,-0.04
15:00:29.538,-0.25,-0.12,-5.05,-0.04
15:00:29.541,-0.25,-0.12,-5.05,-0.04
15:00:29.653,0.04,-0.38,-5.66,-0.04
15:00:29.656,0.04,-0.38,-5.66,-0.05
15:00:29.768,0.04,-0.38,-5.66,-0.05
15:00:29.771,0.04,-0.38,-5.66,-0.05
15:00:29.882,0.04,-0.38,-5.66,-0.05
15:00:29.885,0.04,-0.38,-5.66,-0.05
15:00:29.997,0.04,-0.38,-5.66,-0.05
15:00:30.000,0.04,-0.38,-5.66,-0.05
15:00:30.112,0.04,-0.38,-5.66,-0.05
15:00:30.115,0.04,-0.38,-5.66,-0.05
15:00:30.226,0.04,-0.38,-5.66,-0.05
15:00:30.229,0.04,-0.38,-5.66,-0.05
15:00:30.342,0.04,-0.38,-5.66,-0.05
15:00:30.345,0.04,-0.38,-5.66,-0.05
15:00:30.456,0.04,-0.04,-6.76,-0.05
15:00:30.459,0.04,-0.04,-6.76,-0.07
15:00:30.570,0.04,-0.04,-6.76,-0.07
15:00:30.573,0.04,-0.04,-6.76,-0.07
15:00:30.693,0.04,-0.04,-6.76,-0.07
15:00:30.697,0.04,-0.04,-6.76,-0.07
15:00:30.808,0.04,-0.04,-6.76,-0.07
15:00:30.815,0.04,-0.04,-6.76,-0.07
15:00:30.919,0.04,-0.04,-6.76,-0.07
15:00:30.927,0.04,-0.04,-6.76,-0.07
15:00:31.040,-0.02,0.08,-7.73,-0.07
15:00:31.051,-0.02,0.08,-7.73,-0.07
15:00:31.152,-0.02,0.08,-7.73,-0.07
15:00:31.162,-0.02,0.08,-7.73,-0.07
15:00:31.265,-0.02,0.08,-7.73,-0.07
15:00:31.273,-0.02,0.08,-7.73,-0.07
15:00:31.382,-0.02,0.08,-7.73,-0.07
15:00:31.390,-0.02,0.08,-7.73,-0.07
15:00:31.496,-0.26,-0.01,-8.23,-0.07
15:00:31.505,-0.26,-0.01,-8.23,-0.06
15:00:31.609,-0.26,-0.01,-8.23,-0.06
15:00:31.618,-0.26,-0.01,-8.23,-0.06
15:00:31.729,0.0,0.05,-8.82,-0.06
15:00:31.739,0.0,0.05,-8.82,-0.06
15:00:31.847,0.0,0.05,-8.82,-0.06
15:00:31.858,0.0,0.05,-8.82,-0.06
15:00:31.956,0.03,0.11,-9.22,-0.06
15:00:31.965,0.03,0.11,-9.22,-0.05
15:00:32.079,0.18,0.06,-9.53,-0.05
15:00:32.086,0.18,0.06,-9.53,-0.05
15:00:32.194,0.08,0.07,-9.62,-0.05
15:00:32.207,0.08,0.07,-9.62,-0.05
15:00:32.307,0.08,0.07,-9.62,-0.05
15:00:32.316,0.08,0.07,-9.62,-0.05
15:00:32.409,0.08,0.07,-9.62,-0.05
15:00:32.434,0.08,0.07,-9.62,-0.05
15:00:32.523,0.08,0.07,-9.62,-0.05
15:00:32.548,0.08,0.07,-9.62,-0.05
15:00:32.640,0.08,0.07,-9.62,-0.05
15:00:32.664,0.08,0.07,-9.62,-0.05
15:00:32.767,0.08,0.07,-9.62,-0.05
15:00:32.778,0.08,0.07,-9.62,-0.05
15:00:32.883,0.08,0.07,-9.62,-0.05
15:00:32.892,0.08,0.07,-9.62,-0.05
15:00:32.998,0.08,0.07,-9.62,-0.05
15:00:33.009,0.08,0.07,-9.62,-0.05
15:00:33.100,0.08,0.07,-9.62,-0.05
15:00:33.126,0.08,0.07,-9.62,-0.05
15:00:33.210,0.08,0.07,-9.62,-0.05
15:00:33.233,0.08,0.07,-9.62,-0.05
15:00:33.342,0.08,0.07,-9.62,-0.05
15:00:33.351,0.08,0.07,-9.62,-0.05
15:00:33.454,0.08,0.07,-9.62,-0.05
15:00:33.462,0.08,0.07,-9.62,-0.05
15:00:33.555,0.08,0.07,-9.62,-0.05
15:00:33.578,0.08,0.07,-9.62,-0.05
15:00:33.672,0.08,0.07,-9.62,-0.05
15:00:33.677,0.08,0.07,-9.62,-0.05
15:00:33.784,0.08,0.07,-9.62,-0.05
15:00:33.811,0.08,0.07,-9.62,-0.05
15:00:33.904,0.08,0.07,-9.62,-0.05
15:00:33.910,0.08,0.07,-9.62,-0.05
15:00:34.020,0.08,0.07,-9.62,-0.05
15:00:34.045,0.08,0.07,-9.62,-0.05
15:00:34.128,0.08,0.07,-9.62,-0.05
15:00:34.141,0.08,0.07,-9.62,-0.05
15:00:34.250,0.08,0.07,-9.62,-0.05
15:00:34.276,0.08,0.07,-9.62,-0.05
15:00:34.363,0.08,0.07,-9.62,-0.05
15:00:34.389,0.08,0.07,-9.62,-0.05
15:00:34.485,0.08,0.07,-9.62,-0.05
15:00:34.491,0.08,0.07,-9.62,-0.05
15:00:34.597,0.08,0.07,-9.62,-0.05
15:00:34.604,0.08,0.07,-9.62,-0.05
15:00:34.717,0.08,0.07,-9.62,-0.05
15:00:34.725,0.08,0.07,-9.62,-0.05
15:00:34.831,0.08,0.07,-9.62,-0.05
15:00:34.836,0.08,0.07,-9.62,-0.05
15:00:34.943,0.08,0.07,-9.62,-0.05
15:00:34.966,0.08,0.07,-9.62,-0.05
15:00:35.060,0.08,0.07,-9.62,-0.05
15:00:35.066,0.08,0.07,-9.62,-0.05
15:00:35.177,0.08,0.07,-9.62,-0.05
15:00:35.184,0.08,0.07,-9.62,-0.05
15:00:35.292,0.08,0.07,-9.62,-0.05
15:00:35.303,0.08,0.07,-9.62,-0.05
15:00:35.409,0.08,0.07,-9.62,-0.05
15:00:35.418,0.08,0.07,-9.62,-0.05
15:00:35.532,0.08,0.07,-9.62,-0.05
15:00:35.541,0.08,0.07,-9.62,-0.05
15:00:35.616,0.08,0.07,-9.62,-0.05
15:00:35.652,0.08,0.07,-9.62,-0.05
15:00:35.755,0.08,0.07,-9.62,-0.05
15:00:35.765,0.08,0.07,-9.62,-0.05
15:00:35.845,0.08,0.07,-9.62,-0.05
15:00:35.879,0.08,0.07,-9.62,-0.05
15:00:35.960,0.08,0.07,-9.62,-0.05
15:00:35.995,0.08,0.07,-9.62,-0.05
15:00:36.106,0.08,0.07,-9.62,-0.05
15:00:36.129,0.08,0.07,-9.62,-0.05
15:00:36.215,0.08,0.07,-9.62,-0.05
15:00:36.224,0.08,0.07,-9.62,-0.05
15:00:36.326,0.22,0.04,-16.02,-0.05
15:00:36.334,0.22,0.04,-16.02,0.06
15:00:36.441,0.02,0.11,-16.02,0.06
15:00:36.453,0.02,0.11,-16.02,0.06
15:00:36.560,0.02,0.11,-16.02,0.06
15:00:36.569,0.02,0.11,-16.02,0.06
15:00:36.672,0.02,0.11,-16.02,0.06
15:00:36.685,0.02,0.11,-16.02,0.06
15:00:36.793,0.02,0.11,-16.02,0.06
15:00:36.808,0.02,0.11,-16.02,0.06
15:00:36.906,0.02,0.11,-16.02,0.06
15:00:36.918,0.02,0.11,-16.02,0.06
15:00:36.992,0.06,0.08,-16.95,0.06
15:00:36.995,0.06,0.08,-16.95,0.06
15:00:37.107,0.06,0.08,-16.95,0.06
15:00:37.110,0.06,0.08,-16.95,0.06
15:00:37.221,0.06,0.08,-16.95,0.06
15:00:37.224,0.06,0.08,-16.95,0.06
15:00:37.336,0.06,0.08,-16.95,0.06
15:00:37.339,0.06,0.08,-16.95,0.06
15:00:37.450,0.06,0.08,-16.95,0.06
15:00:37.453,0.06,0.08,-16.95,0.06
15:00:37.565,0.06,0.08,-16.95,0.06
15:00:37.568,0.06,0.08,-16.95,0.06
15:00:37.680,0.06,0.08,-16.95,0.06
15:00:37.682,0.06,0.08,-16.95,0.06
15:00:37.795,0.13,0.05,-18.28,0.06
15:00:37.797,0.13,0.05,-18.28,0.05
15:00:37.909,0.13,0.05,-18.28,0.05
15:00:37.912,0.13,0.05,-18.28,0.05
15:00:38.024,0.1,0.09,-18.61,0.05
15:00:38.026,0.1,0.09,-18.61,0.05
15:00:38.139,0.1,0.09,-18.61,0.05
15:00:38.142,0.1,0.09,-18.61,0.05
15:00:38.253,0.1,0.09,-18.61,0.05
15:00:38.256,0.1,0.09,-18.61,0.05
15:00:38.368,-0.02,0.08,-19.04,0.05
15:00:38.371,-0.02,0.08,-19.04,0.05
15:00:38.483,-0.02,0.08,-19.04,0.05
15:00:38.485,-0.02,0.08,-19.04,0.05
15:00:38.597,-0.02,0.08,-19.04,0.05
15:00:38.600,-0.02,0.08,-19.04,0.05
15:00:38.712,-0.02,0.08,-19.04,0.05
15:00:38.714,-0.02,0.08,-19.04,0.05
15:00:38.827,0.13,0.08,-19.9,0.05
15:00:38.829,0.13,0.08,-19.9,0.05
15:00:38.943,0.13,0.08,-19.9,0.05
15:00:38.947,0.13,0.08,-19.9,0.05
15:00:39.063,0.01,0.1,-20.14,0.05
15:00:39.073,0.01,0.1,-20.14,0.05
15:00:39.178,0.01,0.1,-20.14,0.05
15:00:39.186,0.01,0.1,-20.14,0.05
15:00:39.299,0.12,0.03,-20.6,0.05
15:00:39.307,0.12,0.03,-20.6,0.05
15:00:39.407,0.12,0.03,-20.6,0.05
15:00:39.416,0.12,0.03,-20.6,0.05
15:00:39.520,0.12,0.03,-20.6,0.05
15:00:39.527,0.12,0.03,-20.6,0.05
15:00:39.639,0.12,0.03,-20.6,0.05
15:00:39.647,0.12,0.03,-20.6,0.05
15:00:39.760,0.12,0.03,-20.6,0.05
15:00:39.767,0.12,0.03,-20.6,0.05
15:00:39.876,0.0,0.1,-21.4,0.05
15:00:39.884,0.0,0.1,-21.4,0.05
15:00:39.993,0.0,0.1,-21.4,0.05
15:00:40.001,0.0,0.1,-21.4,0.05
15:00:40.111,0.22,0.03,-21.96,0.05
15:00:40.120,0.22,0.03,-21.96,0.05
15:00:40.219,0.22,0.03,-21.96,0.05
15:00:40.227,0.22,0.03,-21.96,0.05
15:00:40.318,0.22,0.03,-21.96,0.05
15:00:40.340,0.22,0.03,-21.96,0.05
15:00:40.451,0.22,0.03,-21.96,0.05
15:00:40.458,0.22,0.03,-21.96,0.05
15:00:40.563,0.25,-0.09,-22.72,0.05
15:00:40.572,0.25,-0.09,-22.72,0.06
15:00:40.678,0.25,-0.09,-22.72,0.06
15:00:40.686,0.25,-0.09,-22.72,0.06
15:00:40.794,0.25,-0.09,-22.72,0.06
15:00:40.802,0.25,-0.09,-22.72,0.06
15:00:40.900,0.5,0.12,-23.49,0.06
15:00:40.908,0.5,0.12,-23.49,0.06
15:00:41.024,0.5,0.12,-23.49,0.06
15:00:41.032,0.5,0.12,-23.49,0.06
15:00:41.135,-1.76,0.44,-21.41,0.06
15:00:41.142,-1.76,0.44,-21.41,0.06
15:00:41.252,-5.05,1.19,-19.32,0.06
15:00:41.261,-5.05,1.19,-19.32,0.06
15:00:41.367,-5.05,1.19,-19.32,0.06
15:00:41.375,-5.05,1.19,-19.32,0.06
15:00:41.479,-11.43,-2.98,-15.8,0.06
15:00:41.488,-11.43,-2.98,-15.8,0.06
15:00:41.591,-11.43,-2.98,-15.8,0.06
15:00:41.601,-11.43,-2.98,-15.8,0.06
15:00:41.704,-11.43,-2.98,-15.8,0.06
15:00:41.715,-11.43,-2.98,-15.8,0.06
15:00:41.825,-11.43,-2.98,-15.8,0.06
15:00:41.833,-11.43,-2.98,-15.8,0.06
15:00:41.925,-11.43,-2.98,-15.8,0.06
15:00:41.963,-11.43,-2.98,-15.8,0.06
15:00:42.054,18.05,1.97,-25.59,0.06
15:00:42.062,18.05,1.97,-25.59,0.07
15:00:42.161,18.05,1.97,-25.59,0.07
15:00:42.177,18.05,1.97,-25.59,0.07
15:00:42.270,18.05,1.97,-25.59,0.07
15:00:42.294,18.05,1.97,-25.59,0.07
15:00:42.385,18.05,1.97,-25.59,0.07
15:00:42.409,18.05,1.97,-25.59,0.07
15:00:42.497,18.05,1.97,-25.59,0.07
15:00:42.521,18.05,1.97,-25.59,0.07
15:00:42.616,18.05,1.97,-25.59,0.07
15:00:42.641,18.05,1.97,-25.59,0.07
15:00:42.727,18.05,1.97,-25.59,0.07
15:00:42.749,18.05,1.97,-25.59,0.07
15:00:42.848,18.05,1.97,-25.59,0.07
15:00:42.873,18.05,1.97,-25.59,0.07
15:00:42.959,18.05,1.97,-25.59,0.07
15:00:42.980,18.05,1.97,-25.59,0.07
15:00:43.074,18.05,1.97,-25.59,0.07
15:00:43.103,18.05,1.97,-25.59,0.07
15:00:43.187,18.05,1.97,-25.59,0.07
15:00:43.214,18.05,1.97,-25.59,0.07
15:00:43.300,42.09,7.53,-26.92,0.07
15:00:43.331,42.09,7.53,-26.92,0.11
15:00:43.420,42.09,7.53,-26.92,0.11
15:00:43.426,42.09,7.53,-26.92,0.11
15:00:43.532,42.09,7.53,-26.92,0.11
15:00:43.556,42.09,7.53,-26.92,0.11
15:00:43.651,42.09,7.53,-26.92,0.11
15:00:43.660,42.09,7.53,-26.92,0.11
15:00:43.770,42.09,7.53,-26.92,0.11
15:00:43.779,42.09,7.53,-26.92,0.11
15:00:43.893,42.9,7.25,-27.53,0.11
15:00:43.899,42.9,7.25,-27.53,0.13
15:00:43.999,42.9,7.25,-27.53,0.13
15:00:44.009,42.9,7.25,-27.53,0.13
15:00:44.121,42.9,7.25,-27.53,0.13
15:00:44.146,42.9,7.25,-27.53,0.13
15:00:44.234,42.9,7.25,-27.53,0.13
15:00:44.244,42.9,7.25,-27.53,0.13
15:00:44.348,42.04,7.48,-27.94,0.13
15:00:44.374,42.04,7.48,-27.94,0.14
15:00:44.465,42.04,7.48,-27.94,0.14
15:00:44.474,42.04,7.48,-27.94,0.14
15:00:44.577,42.04,7.48,-27.94,0.14
15:00:44.585,42.04,7.48,-27.94,0.14
15:00:44.690,42.04,7.48,-27.94,0.14
15:00:44.700,42.04,7.48,-27.94,0.14
15:00:44.802,42.04,7.48,-27.94,0.14
15:00:44.811,42.04,7.48,-27.94,0.14
15:00:44.913,42.04,7.48,-27.94,0.14
15:00:44.920,42.04,7.48,-27.94,0.14
15:00:45.033,42.04,7.48,-27.94,0.14
15:00:45.042,42.04,7.48,-27.94,0.14
15:00:45.160,42.04,7.48,-27.94,0.14
15:00:45.168,42.04,7.48,-27.94,0.14
15:00:45.275,42.04,7.48,-27.94,0.14
15:00:45.286,42.04,7.48,-27.94,0.14
15:00:45.388,42.04,7.48,-27.94,0.14
15:00:45.399,42.04,7.48,-27.94,0.14
15:00:45.497,42.04,7.48,-27.94,0.14
15:00:45.509,42.04,7.48,-27.94,0.14
15:00:45.616,42.04,7.48,-27.94,0.14
15:00:45.626,42.04,7.48,-27.94,0.14
15:00:45.731,42.04,7.48,-27.94,0.14
15:00:45.742,42.04,7.48,-27.94,0.14
15:00:45.849,42.04,7.48,-27.94,0.14
15:00:45.859,42.04,7.48,-27.94,0.14
15:00:45.959,42.04,7.48,-27.94,0.14
15:00:45.970,42.04,7.48,-27.94,0.14
15:00:46.076,42.04,7.48,-27.94,0.14
15:00:46.089,42.04,7.48,-27.94,0.14
15:00:46.166,42.04,7.48,-27.94,0.14
15:00:46.208,42.04,7.48,-27.94,0.14
15:00:46.314,42.04,7.48,-27.94,0.14
15:00:46.324,42.04,7.48,-27.94,0.14
15:00:46.395,42.04,7.48,-27.94,0.14
15:00:46.398,42.04,7.48,-27.94,0.14
15:00:46.510,42.04,7.48,-27.94,0.14
15:00:46.513,42.04,7.48,-27.94,0.14
15:00:46.625,42.04,7.48,-27.94,0.14
15:00:46.627,42.04,7.48,-27.94,0.14
15:00:46.739,42.04,7.48,-27.94,0.14
15:00:46.742,42.04,7.48,-27.94,0.14
15:00:46.854,42.04,7.48,-27.94,0.14
15:00:46.857,42.04,7.48,-27.94,0.14
15:00:46.969,42.04,7.48,-27.94,0.14
15:00:46.972,42.04,7.48,-27.94,0.14
15:00:47.083,42.04,7.48,-27.94,0.14
15:00:47.086,42.04,7.48,-27.94,0.14
15:00:47.198,42.04,7.48,-27.94,0.14
15:00:47.201,42.04,7.48,-27.94,0.14
15:00:47.313,0.62,4.14,-26.68,0.14
15:00:47.315,0.62,4.14,-26.68,0.17
15:00:47.427,0.62,4.14,-26.68,0.17
15:00:47.430,0.62,4.14,-26.68,0.17
15:00:47.542,0.62,4.14,-26.68,0.17
15:00:47.545,0.62,4.14,-26.68,0.17
15:00:47.657,0.62,4.14,-26.68,0.17
15:00:47.660,0.62,4.14,-26.68,0.17
15:00:47.772,0.62,4.14,-26.68,0.17
15:00:47.774,0.62,4.14,-26.68,0.17
15:00:47.886,16.86,-8.64,-50.98,0.17
15:00:47.889,16.86,-8.64,-50.98,0.16
15:00:48.001,16.86,-8.64,-50.98,0.16
15:00:48.004,16.86,-8.64,-50.98,0.16
15:00:48.116,16.86,-8.64,-50.98,0.16
15:00:48.118,16.86,-8.64,-50.98,0.16
15:00:48.230,16.86,-8.64,-50.98,0.16
15:00:48.233,16.86,-8.64,-50.98,0.16
15:00:48.345,97.83,-10.99,-140.19,0.16
15:00:48.348,97.83,-10.99,-140.19,0.16
15:00:48.460,98.05,-12.23,-140.11,0.16
15:00:48.463,98.05,-12.23,-140.11,0.16
15:00:48.574,98.05,-12.23,-140.11,0.16
15:00:48.577,98.05,-12.23,-140.11,0.16
15:00:48.689,98.05,-12.23,-140.11,0.16
15:00:48.692,98.05,-12.23,-140.11,0.16
15:00:48.804,107.17,-9.19,-149.63,0.16
15:00:48.807,107.17,-9.19,-149.63,0.15
15:00:48.918,107.17,-9.19,-149.63,0.15
15:00:48.921,107.17,-9.19,-149.63,0.15
15:00:49.033,107.4,-9.31,-150.85,0.15
15:00:49.036,107.4,-9.31,-150.85,0.15
15:00:49.148,108.2,-9.7,-152.1,0.15
15:00:49.151,108.2,-9.7,-152.1,0.15
15:00:49.263,106.65,-10.53,-150.63,0.15
15:00:49.265,106.65,-10.53,-150.63,0.16
15:00:49.377,106.65,-10.53,-150.63,0.16
15:00:49.380,106.65,-10.53,-150.63,0.16
15:00:49.492,104.36,-11.98,-149.01,0.16
15:00:49.495,104.36,-11.98,-149.01,0.16
15:00:49.610,104.36,-11.98,-149.01,0.16
15:00:49.617,104.36,-11.98,-149.01,0.16
15:00:49.721,104.36,-11.98,-149.01,0.16
15:00:49.724,104.36,-11.98,-149.01,0.16
15:00:49.836,99.07,-13.33,-144.31,0.16
15:00:49.839,99.07,-13.33,-144.31,0.17
15:00:49.951,99.07,-13.33,-144.31,0.17
15:00:49.953,99.07,-13.33,-144.31,0.17
15:00:50.067,99.07,-13.33,-144.31,0.17
15:00:50.070,99.07,-13.33,-144.31,0.17
15:00:50.184,99.07,-13.33,-144.31,0.17
15:00:50.190,99.07,-13.33,-144.31,0.17
15:00:50.297,84.23,-15.2,-131.22,0.17
15:00:50.306,84.23,-15.2,-131.22,0.19
15:00:50.415,79.71,-15.45,-127.03,0.19
15:00:50.419,79.71,-15.45,-127.03,0.19
15:00:50.530,79.71,-15.45,-127.03,0.19
15:00:50.537,79.71,-15.45,-127.03,0.19
15:00:50.641,79.71,-15.45,-127.03,0.19
15:00:50.648,79.71,-15.45,-127.03,0.19
15:00:50.759,79.71,-15.45,-127.03,0.19
15:00:50.764,79.71,-15.45,-127.03,0.19
15:00:50.872,79.71,-15.45,-127.03,0.19
15:00:50.881,79.71,-15.45,-127.03,0.19
15:00:50.987,79.71,-15.45,-127.03,0.19
15:00:50.997,79.71,-15.45,-127.03,0.19
15:00:51.106,79.71,-15.45,-127.03,0.19
15:00:51.114,79.71,-15.45,-127.03,0.19
15:00:51.219,79.71,-15.45,-127.03,0.19
15:00:51.236,79.71,-15.45,-127.03,0.19
15:00:51.341,79.71,-15.45,-127.03,0.19
15:00:51.349,79.71,-15.45,-127.03,0.19
15:00:51.458,79.71,-15.45,-127.03,0.19
15:00:51.466,79.71,-15.45,-127.03,0.19
15:00:51.567,79.71,-15.45,-127.03,0.19
15:00:51.574,79.71,-15.45,-127.03,0.19
15:00:51.685,79.71,-15.45,-127.03,0.19
15:00:51.693,79.71,-15.45,-127.03,0.19
15:00:51.805,79.71,-15.45,-127.03,0.19
15:00:51.813,79.71,-15.45,-127.03,0.19
15:00:51.901,79.71,-15.45,-127.03,0.19
15:00:51.913,79.71,-15.45,-127.03,0.19
15:00:52.020,79.71,-15.45,-127.03,0.19
15:00:52.037,79.71,-15.45,-127.03,0.19
15:00:52.135,19.75,-13.21,-70.55,0.19
15:00:52.160,19.75,-13.21,-70.55,0.25
15:00:52.251,19.75,-13.21,-70.55,0.25
15:00:52.261,19.75,-13.21,-70.55,0.25
15:00:52.363,19.75,-13.21,-70.55,0.25
15:00:52.380,19.75,-13.21,-70.55,0.25
15:00:52.479,19.75,-13.21,-70.55,0.25
15:00:52.487,19.75,-13.21,-70.55,0.25
15:00:52.595,19.75,-13.21,-70.55,0.25
15:00:52.600,19.75,-13.21,-70.55,0.25
15:00:52.708,19.75,-13.21,-70.55,0.25
15:00:52.713,19.75,-13.21,-70.55,0.25
15:00:52.822,16.74,-11.29,-68.36,0.25
15:00:52.844,16.74,-11.29,-68.36,0.26
15:00:52.935,16.74,-11.29,-68.36,0.26
15:00:52.940,16.74,-11.29,-68.36,0.26
15:00:53.054,16.74,-11.29,-68.36,0.26
15:00:53.076,16.74,-11.29,-68.36,0.26
15:00:53.173,16.74,-11.29,-68.36,0.26
15:00:53.182,16.74,-11.29,-68.36,0.26
15:00:53.282,16.74,-11.29,-68.36,0.26
15:00:53.288,16.74,-11.29,-68.36,0.26
15:00:53.397,15.99,-11.31,-69.18,0.26
15:00:53.404,15.99,-11.31,-69.18,0.27
15:00:53.515,15.99,-11.31,-69.18,0.27
15:00:53.523,15.99,-11.31,-69.18,0.27
15:00:53.627,15.99,-11.31,-69.18,0.27
15:00:53.635,15.99,-11.31,-69.18,0.27
15:00:53.743,17.36,-11.88,-70.99,0.27
15:00:53.749,17.36,-11.88,-70.99,0.27
15:00:53.858,17.36,-11.88,-70.99,0.27
15:00:53.864,17.36,-11.88,-70.99,0.27
15:00:53.966,17.36,-11.88,-70.99,0.27
15:00:53.991,17.36,-11.88,-70.99,0.27
15:00:54.084,17.36,-11.88,-70.99,0.27
15:00:54.107,17.36,-11.88,-70.99,0.27
15:00:54.212,17.22,-11.66,-71.53,0.27
15:00:54.217,17.22,-11.66,-71.53,0.27
15:00:54.318,17.22,-11.66,-71.53,0.27
15:00:54.327,17.22,-11.66,-71.53,0.27
15:00:54.429,17.22,-11.66,-71.53,0.27
15:00:54.434,17.22,-11.66,-71.53,0.27
15:00:54.546,17.22,-11.66,-71.53,0.27
15:00:54.569,17.22,-11.66,-71.53,0.27
15:00:54.659,17.22,-11.66,-71.53,0.27
15:00:54.686,17.22,-11.66,-71.53,0.27
15:00:54.774,17.22,-11.66,-71.53,0.27
15:00:54.797,17.22,-11.66,-71.53,0.27
15:00:54.892,9.26,-1.13,-56.21,0.27
15:00:54.919,9.26,-1.13,-56.21,0.28
15:00:55.003,8.42,3.44,-53.39,0.28
15:00:55.026,8.42,3.44,-53.39,0.28
15:00:55.113,8.42,3.44,-53.39,0.28
15:00:55.136,8.42,3.44,-53.39,0.28
15:00:55.228,2.11,13.68,-44.78,0.28
15:00:55.254,2.11,13.68,-44.78,0.28
15:00:55.359,2.11,13.68,-44.78,0.28
15:00:55.366,2.11,13.68,-44.78,0.28
15:00:55.456,2.11,13.68,-44.78,0.28
15:00:55.478,2.11,13.68,-44.78,0.28
15:00:55.587,2.11,13.68,-44.78,0.28
15:00:55.595,2.11,13.68,-44.78,0.28
15:00:55.686,2.11,13.68,-44.78,0.28
15:00:55.711,2.11,13.68,-44.78,0.28
15:00:55.802,2.11,13.68,-44.78,0.28
15:00:55.807,2.11,13.68,-44.78,0.28
15:00:55.932,2.11,13.68,-44.78,0.28
15:00:55.943,2.11,13.68,-44.78,0.28
15:00:56.047,2.11,13.68,-44.78,0.28
15:00:56.054,2.11,13.68,-44.78,0.28
15:00:56.161,2.11,13.68,-44.78,0.28
15:00:56.169,2.11,13.68,-44.78,0.28
15:00:56.271,2.11,13.68,-44.78,0.28
15:00:56.277,2.11,13.68,-44.78,0.28
15:00:56.387,2.11,13.68,-44.78,0.28
15:00:56.397,2.11,13.68,-44.78,0.28
15:00:56.504,2.11,13.68,-44.78,0.28
15:00:56.512,2.11,13.68,-44.78,0.28
15:00:56.603,2.11,13.68,-44.78,0.28
15:00:56.627,2.11,13.68,-44.78,0.28
15:00:56.723,2.11,13.68,-44.78,0.28
15:00:56.729,2.11,13.68,-44.78,0.28
15:00:56.836,2.11,13.68,-44.78,0.28
15:00:56.859,2.11,13.68,-44.78,0.28
15:00:56.949,2.11,13.68,-44.78,0.28
15:00:56.971,2.11,13.68,-44.78,0.28
15:00:57.065,2.11,13.68,-44.78,0.28
15:00:57.107,2.11,13.68,-44.78,0.28
15:00:57.185,2.11,13.68,-44.78,0.28
15:00:57.203,2.11,13.68,-44.78,0.28
15:00:57.305,2.11,13.68,-44.78,0.28
15:00:57.314,2.11,13.68,-44.78,0.28
15:00:57.408,2.11,13.68,-44.78,0.28
15:00:57.429,2.11,13.68,-44.78,0.28
15:00:57.539,2.11,13.68,-44.78,0.28
15:00:57.546,2.11,13.68,-44.78,0.28
15:00:57.648,2.11,13.68,-44.78,0.28
15:00:57.656,2.11,13.68,-44.78,0.28
15:00:57.763,2.11,13.68,-44.78,0.28
15:00:57.772,2.11,13.68,-44.78,0.28
15:00:57.877,-3.92,33.27,-25.42,0.28
15:00:57.887,-3.92,33.27,-25.42,0.31
15:00:57.986,-3.92,33.27,-25.42,0.31
15:00:57.995,-3.92,33.27,-25.42,0.31
15:00:58.102,-3.65,31.25,-25.89,0.31
15:00:58.113,-3.65,31.25,-25.89,0.31
15:00:58.225,-3.65,31.25,-25.89,0.31
15:00:58.233,-3.65,31.25,-25.89,0.31
15:00:58.330,-3.65,31.25,-25.89,0.31
15:00:58.339,-3.65,31.25,-25.89,0.31
15:00:58.445,-3.65,31.25,-25.89,0.31
15:00:58.454,-3.65,31.25,-25.89,0.31
15:00:58.554,-3.65,31.25,-25.89,0.31
15:00:58.563,-3.65,31.25,-25.89,0.31
15:00:58.672,-3.6,25.75,-26.38,0.31
15:00:58.680,-3.6,25.75,-26.38,0.3
15:00:58.796,-3.6,25.75,-26.38,0.3
15:00:58.804,-3.6,25.75,-26.38,0.3
15:00:58.910,-3.03,23.87,-27.36,0.3
15:00:58.918,-3.03,23.87,-27.36,0.29
15:00:59.021,-3.03,23.87,-27.36,0.29
15:00:59.030,-3.03,23.87,-27.36,0.29
15:00:59.136,-3.03,23.87,-27.36,0.29
15:00:59.145,-3.03,23.87,-27.36,0.29
15:00:59.253,-3.03,23.87,-27.36,0.29
15:00:59.258,-3.03,23.87,-27.36,0.29
15:00:59.362,-3.03,23.87,-27.36,0.29
15:00:59.370,-3.03,23.87,-27.36,0.29
15:00:59.476,-3.03,23.87,-27.36,0.29
15:00:59.484,-3.03,23.87,-27.36,0.29
15:00:59.591,-3.03,23.87,-27.36,0.29
15:00:59.597,-3.03,23.87,-27.36,0.29
15:00:59.709,-3.03,23.87,-27.36,0.29
15:00:59.718,-3.03,23.87,-27.36,0.29
15:00:59.828,-3.03,23.87,-27.36,0.29
15:00:59.837,-3.03,23.87,-27.36,0.29
15:00:59.934,-3.03,23.87,-27.36,0.29
15:00:59.943,-3.03,23.87,-27.36,0.29
15:01:00.057,-3.03,23.87,-27.36,0.29
15:01:00.067,-3.03,23.87,-27.36,0.29
15:01:00.179,-3.03,23.87,-27.36,0.29
15:01:00.189,-3.03,23.87,-27.36,0.29
15:01:00.291,-3.03,23.87,-27.36,0.29
15:01:00.300,-3.03,23.87,-27.36,0.29
15:01:00.389,-3.03,23.87,-27.36,0.29
15:01:00.415,-3.03,23.87,-27.36,0.29
15:01:00.523,-3.03,23.87,-27.36,0.29
15:01:00.532,-3.03,23.87,-27.36,0.29
15:01:00.619,-3.03,23.87,-27.36,0.29
15:01:00.641,-3.03,23.87,-27.36,0.29
15:01:00.738,2.69,8.2,-34.1,0.29
15:01:00.744,2.69,8.2,-34.1,0.24
15:01:00.851,3.47,7.39,-34.87,0.24
15:01:00.873,3.47,7.39,-34.87,0.24
15:01:00.965,3.47,7.39,-34.87,0.24
15:01:00.991,3.47,7.39,-34.87,0.24
15:01:01.077,5.33,5.7,-36.39,0.24
15:01:01.101,5.33,5.7,-36.39,0.23
15:01:01.192,5.33,5.7,-36.39,0.23
15:01:01.227,5.33,5.7,-36.39,0.23
15:01:01.312,5.33,5.7,-36.39,0.23
15:01:01.318,5.33,5.7,-36.39,0.23
15:01:01.425,5.33,5.7,-36.39,0.23
15:01:01.431,5.33,5.7,-36.39,0.23
15:01:01.534,5.33,5.7,-36.39,0.23
15:01:01.558,5.33,5.7,-36.39,0.23
15:01:01.650,5.33,5.7,-36.39,0.23
15:01:01.672,5.33,5.7,-36.39,0.23
15:01:01.768,5.33,5.7,-36.39,0.23
15:01:01.776,5.33,5.7,-36.39,0.23
15:01:01.882,14.08,0.95,-45.35,0.23
15:01:01.893,14.08,0.95,-45.35,0.22
15:01:02.000,14.08,0.95,-45.35,0.22
15:01:02.009,14.08,0.95,-45.35,0.22
15:01:02.112,14.08,0.95,-45.35,0.22
15:01:02.125,14.08,0.95,-45.35,0.22
15:01:02.245,14.08,0.95,-45.35,0.22
15:01:02.256,14.08,0.95,-45.35,0.22
15:01:02.349,14.08,0.95,-45.35,0.22
15:01:02.363,14.08,0.95,-45.35,0.22
15:01:02.468,14.08,0.95,-45.35,0.22
15:01:02.477,14.08,0.95,-45.35,0.22
15:01:02.582,14.08,0.95,-45.35,0.22
15:01:02.589,14.08,0.95,-45.35,0.22
15:01:02.695,23.43,-0.43,-55.06,0.22
15:01:02.703,23.43,-0.43,-55.06,0.2
15:01:02.800,23.43,-0.43,-55.06,0.2
15:01:02.812,23.43,-0.43,-55.06,0.2
15:01:02.930,23.43,-0.43,-55.06,0.2
15:01:02.935,23.43,-0.43,-55.06,0.2
15:01:03.042,23.43,-0.43,-55.06,0.2
15:01:03.051,23.43,-0.43,-55.06,0.2
15:01:03.159,23.43,-0.43,-55.06,0.2
15:01:03.167,23.43,-0.43,-55.06,0.2
15:01:03.277,23.43,-0.43,-55.06,0.2
15:01:03.283,23.43,-0.43,-55.06,0.2
15:01:03.382,23.43,-0.43,-55.06,0.2
15:01:03.391,23.43,-0.43,-55.06,0.2
15:01:03.508,23.43,-0.43,-55.06,0.2
15:01:03.516,23.43,-0.43,-55.06,0.2
15:01:03.597,21.05,-1.19,-55.31,0.2
15:01:03.632,21.05,-1.19,-55.31,0.2
15:01:03.712,21.05,-1.19,-55.31,0.2
15:01:03.747,21.05,-1.19,-55.31,0.2
15:01:03.855,22.95,-0.26,-57.09,0.2
15:01:03.869,22.95,-0.26,-57.09,0.19
15:01:03.942,22.95,-0.26,-57.09,0.19
15:01:03.970,22.95,-0.26,-57.09,0.19
15:01:04.081,22.95,-0.26,-57.09,0.19
15:01:04.092,22.95,-0.26,-57.09,0.19
15:01:04.197,22.95,-0.26,-57.09,0.19
15:01:04.206,22.95,-0.26,-57.09,0.19
15:01:04.307,22.95,-0.26,-57.09,0.19
15:01:04.320,22.95,-0.26,-57.09,0.19
15:01:04.427,22.95,-0.26,-57.09,0.19
15:01:04.436,22.95,-0.26,-57.09,0.19
15:01:04.546,22.95,-0.26,-57.09,0.19
15:01:04.554,22.95,-0.26,-57.09,0.19
15:01:04.659,19.6,-0.95,-57.73,0.19
15:01:04.672,19.6,-0.95,-57.73,0.2
15:01:04.770,20.12,-1.47,-58.32,0.2
15:01:04.780,20.12,-1.47,-58.32,0.2
15:01:04.880,20.12,-1.47,-58.32,0.2
15:01:04.890,20.12,-1.47,-58.32,0.2
15:01:04.997,20.12,-1.47,-58.32,0.2
15:01:05.012,20.12,-1.47,-58.32,0.2
15:01:05.108,20.12,-1.47,-58.32,0.2
15:01:05.116,20.12,-1.47,-58.32,0.2
15:01:05.225,20.12,-1.47,-58.32,0.2
15:01:05.240,20.12,-1.47,-58.32,0.2
15:01:05.339,20.12,-1.47,-58.32,0.2
15:01:05.352,20.12,-1.47,-58.32,0.2
15:01:05.452,20.12,-1.47,-58.32,0.2
15:01:05.462,20.12,-1.47,-58.32,0.2
15:01:05.571,20.12,-1.47,-58.32,0.2
15:01:05.579,20.12,-1.47,-58.32,0.2
15:01:05.676,20.12,-1.47,-58.32,0.2
15:01:05.692,20.12,-1.47,-58.32,0.2
15:01:05.776,21.99,-1.26,-60.11,0.2
15:01:05.812,21.99,-1.26,-60.11,0.19
15:01:05.891,21.99,-1.26,-60.11,0.19
15:01:05.926,21.99,-1.26,-60.11,0.19
15:01:06.027,22.82,-1.06,-61.28,0.19
15:01:06.036,22.82,-1.06,-61.28,0.18
15:01:06.149,22.82,-1.06,-61.28,0.18
15:01:06.158,22.82,-1.06,-61.28,0.18
15:01:06.261,22.82,-1.06,-61.28,0.18
15:01:06.276,22.82,-1.06,-61.28,0.18
15:01:06.380,22.82,-1.06,-61.28,0.18
15:01:06.390,22.82,-1.06,-61.28,0.18
15:01:06.465,23.37,-1.32,-62.56,0.18
15:01:06.493,23.37,-1.32,-62.56,0.18
15:01:06.579,23.37,-1.32,-62.56,0.18
15:01:06.614,23.37,-1.32,-62.56,0.18
15:01:06.727,23.37,-1.32,-62.56,0.18
15:01:06.736,23.37,-1.32,-62.56,0.18
15:01:06.836,23.37,-1.32,-62.56,0.18
15:01:06.848,23.37,-1.32,-62.56,0.18
15:01:06.942,23.37,-1.32,-62.56,0.18
15:01:06.951,23.37,-1.32,-62.56,0.18
15:01:07.062,23.37,-1.32,-62.56,0.18
15:01:07.070,23.37,-1.32,-62.56,0.18
15:01:07.173,23.37,-1.32,-62.56,0.18
15:01:07.186,23.37,-1.32,-62.56,0.18
15:01:07.287,23.37,-1.32,-62.56,0.18
15:01:07.296,23.37,-1.32,-62.56,0.18
15:01:07.405,23.37,-1.32,-62.56,0.18
15:01:07.413,23.37,-1.32,-62.56,0.18
15:01:07.518,23.37,-1.32,-62.56,0.18
15:01:07.523,23.37,-1.32,-62.56,0.18
15:01:07.614,23.37,-1.32,-62.56,0.18
15:01:07.643,23.37,-1.32,-62.56,0.18
15:01:07.738,23.37,-1.32,-62.56,0.18
15:01:07.747,23.37,-1.32,-62.56,0.18
15:01:07.855,23.37,-1.32,-62.56,0.18
15:01:07.861,23.37,-1.32,-62.56,0.18
15:01:07.962,23.37,-1.32,-62.56,0.18
15:01:07.971,23.37,-1.32,-62.56,0.18
15:01:08.076,23.37,-1.32,-62.56,0.18
15:01:08.082,23.37,-1.32,-62.56,0.18
15:01:08.197,23.37,-1.32,-62.56,0.18
15:01:08.205,23.37,-1.32,-62.56,0.18
15:01:08.303,23.37,-1.32,-62.56,0.18
15:01:08.312,23.37,-1.32,-62.56,0.18
15:01:08.433,23.37,-1.32,-62.56,0.18
15:01:08.437,23.37,-1.32,-62.56,0.18
15:01:08.548,23.37,-1.32,-62.56,0.18
15:01:08.553,23.37,-1.32,-62.56,0.18
15:01:08.655,23.37,-1.32,-62.56,0.18
15:01:08.663,23.37,-1.32,-62.56,0.18
15:01:08.780,23.37,-1.32,-62.56,0.18
15:01:08.790,23.37,-1.32,-62.56,0.18
15:01:08.896,23.37,-1.32,-62.56,0.18
15:01:08.905,23.37,-1.32,-62.56,0.18
15:01:09.014,23.51,-1.62,-67.24,0.18
15:01:09.023,23.51,-1.62,-67.24,0.19
15:01:09.127,23.51,-1.62,-67.24,0.19
15:01:09.137,23.51,-1.62,-67.24,0.19
15:01:09.246,23.51,-1.62,-67.24,0.19
15:01:09.256,23.51,-1.62,-67.24,0.19
15:01:09.352,23.51,-1.62,-67.24,0.19
15:01:09.358,23.51,-1.62,-67.24,0.19
15:01:09.446,23.51,-1.62,-67.24,0.19
15:01:09.475,23.51,-1.62,-67.24,0.19
15:01:09.586,23.51,-1.62,-67.24,0.19
15:01:09.598,23.51,-1.62,-67.24,0.19
15:01:09.675,23.51,-1.62,-67.24,0.19
15:01:09.678,23.51,-1.62,-67.24,0.19
15:01:09.790,23.51,-1.62,-67.24,0.19
15:01:09.793,23.51,-1.62,-67.24,0.19
15:01:09.905,23.51,-1.62,-67.24,0.19
15:01:09.910,23.51,-1.62,-67.24,0.19
15:01:10.020,23.51,-1.62,-67.24,0.19
15:01:10.022,23.51,-1.62,-67.24,0.19
15:01:10.134,23.51,-1.62,-67.24,0.19
15:01:10.137,23.51,-1.62,-67.24,0.19
15:01:10.249,23.51,-1.62,-67.24,0.19
15:01:10.252,23.51,-1.62,-67.24,0.19
15:01:10.363,23.51,-1.62,-67.24,0.19
15:01:10.367,23.51,-1.62,-67.24,0.19
15:01:10.478,23.51,-1.62,-67.24,0.19
15:01:10.481,23.51,-1.62,-67.24,0.19
15:01:10.593,23.51,-1.62,-67.24,0.19
15:01:10.595,23.51,-1.62,-67.24,0.19
15:01:10.708,23.51,-1.62,-67.24,0.19
15:01:10.711,23.51,-1.62,-67.24,0.19
15:01:10.822,23.51,-1.62,-67.24,0.19
15:01:10.826,23.51,-1.62,-67.24,0.19
15:01:10.937,23.51,-1.62,-67.24,0.19
15:01:10.940,23.51,-1.62,-67.24,0.19
15:01:11.052,23.51,-1.62,-67.24,0.19
15:01:11.055,23.51,-1.62,-67.24,0.19
15:01:11.166,23.51,-1.62,-67.24,0.19
15:01:11.169,23.51,-1.62,-67.24,0.19
15:01:11.281,23.51,-1.62,-67.24,0.19
15:01:11.284,23.51,-1.62,-67.24,0.19
15:01:11.396,23.51,-1.62,-67.24,0.19
15:01:11.398,23.51,-1.62,-67.24,0.19
15:01:11.511,23.51,-1.62,-67.24,0.19
15:01:11.514,23.51,-1.62,-67.24,0.19
15:01:11.626,23.51,-1.62,-67.24,0.19
15:01:11.630,23.51,-1.62,-67.24,0.19
15:01:11.743,23.51,-1.62,-67.24,0.19
15:01:11.746,23.51,-1.62,-67.24,0.19
15:01:11.858,23.51,-1.62,-67.24,0.19
15:01:11.865,23.51,-1.62,-67.24,0.19
15:01:11.974,23.51,-1.62,-67.24,0.19
15:01:11.984,23.51,-1.62,-67.24,0.19
15:01:12.098,23.51,-1.62,-67.24,0.19
15:01:12.107,23.51,-1.62,-67.24,0.19
15:01:12.206,21.45,-2.59,-72.63,0.19
15:01:12.214,21.45,-2.59,-72.63,0.24
15:01:12.337,21.45,-2.59,-72.63,0.24
15:01:12.342,21.45,-2.59,-72.63,0.24
15:01:12.442,42.65,-7.61,-96.23,0.24
15:01:12.448,42.65,-7.61,-96.23,0.24
15:01:12.559,42.65,-7.61,-96.23,0.24
15:01:12.569,42.65,-7.61,-96.23,0.24
15:01:12.668,42.65,-7.61,-96.23,0.24
15:01:12.676,42.65,-7.61,-96.23,0.24
15:01:12.792,42.65,-7.61,-96.23,0.24
15:01:12.799,42.65,-7.61,-96.23,0.24
15:01:12.888,42.65,-7.61,-96.23,0.24
15:01:12.898,42.65,-7.61,-96.23,0.24
15:01:13.004,42.65,-7.61,-96.23,0.24
15:01:13.022,42.65,-7.61,-96.23,0.24
15:01:13.116,42.65,-7.61,-96.23,0.24
15:01:13.141,42.65,-7.61,-96.23,0.24
15:01:13.238,42.65,-7.61,-96.23,0.24
15:01:13.262,42.65,-7.61,-96.23,0.24
15:01:13.353,42.65,-7.61,-96.23,0.24
15:01:13.360,42.65,-7.61,-96.23,0.24
15:01:13.464,42.65,-7.61,-96.23,0.24
15:01:13.487,42.65,-7.61,-96.23,0.24
15:01:13.579,42.65,-7.61,-96.23,0.24
15:01:13.588,42.65,-7.61,-96.23,0.24
15:01:13.695,42.65,-7.61,-96.23,0.24
15:01:13.720,42.65,-7.61,-96.23,0.24
15:01:13.813,42.65,-7.61,-96.23,0.24
15:01:13.820,42.65,-7.61,-96.23,0.24
15:01:13.926,42.65,-7.61,-96.23,0.24
15:01:13.933,42.65,-7.61,-96.23,0.24
15:01:14.040,71.28,-7.39,-152.08,0.24
15:01:14.045,71.28,-7.39,-152.08,0.29
15:01:14.156,71.28,-7.39,-152.08,0.29
15:01:14.162,71.28,-7.39,-152.08,0.29
15:01:14.268,71.28,-7.39,-152.08,0.29
15:01:14.292,71.28,-7.39,-152.08,0.29
15:01:14.380,65.37,-7.87,-147.38,0.29
15:01:14.404,65.37,-7.87,-147.38,0.3
15:01:14.498,52.25,-8.08,-137.99,0.3
15:01:14.503,52.25,-8.08,-137.99,0.3
15:01:14.613,35.3,-8.13,-126.75,0.3
15:01:14.623,35.3,-8.13,-126.75,0.3
15:01:14.729,35.3,-8.13,-126.75,0.3
15:01:14.739,35.3,-8.13,-126.75,0.3
15:01:14.852,35.3,-8.13,-126.75,0.3
15:01:14.858,35.3,-8.13,-126.75,0.3
15:01:14.951,17.52,-11.78,-123.33,0.3
15:01:14.982,17.52,-11.78,-123.33,0.32
15:01:15.065,17.52,-11.78,-123.33,0.32
15:01:15.098,17.52,-11.78,-123.33,0.32
15:01:15.208,17.52,-11.78,-123.33,0.32
15:01:15.215,17.52,-11.78,-123.33,0.32
15:01:15.295,17.52,-11.78,-123.33,0.32
15:01:15.335,17.52,-11.78,-123.33,0.32
15:01:15.440,17.52,-11.78,-123.33,0.32
15:01:15.448,17.52,-11.78,-123.33,0.32
15:01:15.524,17.52,-11.78,-123.33,0.32
15:01:15.558,17.52,-11.78,-123.33,0.32
15:01:15.639,-22.37,-11.39,-84.67,0.32
15:01:15.642,-22.37,-11.39,-84.67,0.35
15:01:15.753,-22.37,-11.39,-84.67,0.35
15:01:15.756,-22.37,-11.39,-84.67,0.35
15:01:15.868,-22.37,-11.39,-84.67,0.35
15:01:15.871,-22.37,-11.39,-84.67,0.35
15:01:15.983,-22.37,-11.39,-84.67,0.35
15:01:15.985,-22.37,-11.39,-84.67,0.35
15:01:16.097,-36.47,-10.93,-74.45,0.35
15:01:16.100,-36.47,-10.93,-74.45,0.37
15:01:16.212,-36.47,-10.93,-74.45,0.37
15:01:16.215,-36.47,-10.93,-74.45,0.37
15:01:16.327,-36.47,-10.93,-74.45,0.37
15:01:16.329,-36.47,-10.93,-74.45,0.37
15:01:16.441,-36.47,-10.93,-74.45,0.37
15:01:16.444,-36.47,-10.93,-74.45,0.37
15:01:16.556,-49.2,-9.29,-66.44,0.37
15:01:16.559,-49.2,-9.29,-66.44,0.39
15:01:16.671,-49.2,-9.29,-66.44,0.39
15:01:16.674,-49.2,-9.29,-66.44,0.39
15:01:16.786,-49.2,-9.29,-66.44,0.39
15:01:16.788,-49.2,-9.29,-66.44,0.39
15:01:16.900,-49.2,-9.29,-66.44,0.39
15:01:16.903,-49.2,-9.29,-66.44,0.39
15:01:17.015,-49.2,-9.29,-66.44,0.39
15:01:17.018,-49.2,-9.29,-66.44,0.39
15:01:17.130,-49.2,-9.29,-66.44,0.39
15:01:17.132,-49.2,-9.29,-66.44,0.39
15:01:17.244,-49.2,-9.29,-66.44,0.39
15:01:17.247,-49.2,-9.29,-66.44,0.39
15:01:17.359,-49.2,-9.29,-66.44,0.39
15:01:17.362,-49.2,-9.29,-66.44,0.39
15:01:17.474,-49.2,-9.29,-66.44,0.39
15:01:17.476,-49.2,-9.29,-66.44,0.39
15:01:17.588,-49.2,-9.29,-66.44,0.39
15:01:17.591,-49.2,-9.29,-66.44,0.39
15:01:17.703,-49.2,-9.29,-66.44,0.39
15:01:17.707,-49.2,-9.29,-66.44,0.39
15:01:17.818,-49.2,-9.29,-66.44,0.39
15:01:17.821,-49.2,-9.29,-66.44,0.39
15:01:17.932,-49.2,-9.29,-66.44,0.39
15:01:17.935,-49.2,-9.29,-66.44,0.39
15:01:18.047,-49.2,-9.29,-66.44,0.39
15:01:18.050,-49.2,-9.29,-66.44,0.39
15:01:18.162,-49.2,-9.29,-66.44,0.39
15:01:18.164,-49.2,-9.29,-66.44,0.39
15:01:18.276,-49.2,-9.29,-66.44,0.39
15:01:18.279,-49.2,-9.29,-66.44,0.39
15:01:18.391,-49.2,-9.29,-66.44,0.39
15:01:18.394,-49.2,-9.29,-66.44,0.39
15:01:18.506,-49.2,-9.29,-66.44,0.39
15:01:18.509,-49.2,-9.29,-66.44,0.39
15:01:18.620,-49.2,-9.29,-66.44,0.39
15:01:18.623,-49.2,-9.29,-66.44,0.39
15:01:18.735,-49.2,-9.29,-66.44,0.39
15:01:18.738,-49.2,-9.29,-66.44,0.39
15:01:18.850,-49.2,-9.29,-66.44,0.39
15:01:18.853,-49.2,-9.29,-66.44,0.39
15:01:18.966,-49.2,-9.29,-66.44,0.39
15:01:18.968,-49.2,-9.29,-66.44,0.39
15:01:19.084,-49.2,-9.29,-66.44,0.39
15:01:19.091,-49.2,-9.29,-66.44,0.39
15:01:19.199,-49.2,-9.29,-66.44,0.39
15:01:19.208,-49.2,-9.29,-66.44,0.39
15:01:19.322,-49.2,-9.29,-66.44,0.39
15:01:19.332,-49.2,-9.29,-66.44,0.39
15:01:19.433,-49.2,-9.29,-66.44,0.39
15:01:19.441,-49.2,-9.29,-66.44,0.39
15:01:19.554,-49.2,-9.29,-66.44,0.39
15:01:19.563,-49.2,-9.29,-66.44,0.39
15:01:19.663,-49.2,-9.29,-66.44,0.39
15:01:19.668,-49.2,-9.29,-66.44,0.39
15:01:19.787,-49.2,-9.29,-66.44,0.39
15:01:19.797,-49.2,-9.29,-66.44,0.39
15:01:19.895,-49.2,-9.29,-66.44,0.39
15:01:19.901,-49.2,-9.29,-66.44,0.39
15:01:20.008,-49.2,-9.29,-66.44,0.39
15:01:20.016,-49.2,-9.29,-66.44,0.39
15:01:20.127,-49.2,-9.29,-66.44,0.39
15:01:20.136,-49.2,-9.29,-66.44,0.39
15:01:20.243,-49.2,-9.29,-66.44,0.39
15:01:20.250,-49.2,-9.29,-66.44,0.39
15:01:20.359,-49.2,-9.29,-66.44,0.39
15:01:20.367,-49.2,-9.29,-66.44,0.39
15:01:20.469,1.01,0.01,-84.72,0.39
15:01:20.477,1.01,0.01,-84.72,0.47
15:01:20.584,1.01,0.01,-84.72,0.47
15:01:20.594,1.01,0.01,-84.72,0.47
15:01:20.699,1.01,0.01,-84.72,0.47
15:01:20.710,1.01,0.01,-84.72,0.47
15:01:20.815,1.01,0.01,-84.72,0.47
15:01:20.827,1.01,0.01,-84.72,0.47
15:01:20.929,1.01,0.01,-84.72,0.47
15:01:20.940,1.01,0.01,-84.72,0.47
15:01:21.031,1.01,0.01,-84.72,0.47
15:01:21.054,1.01,0.01,-84.72,0.47
15:01:21.144,1.01,0.01,-84.72,0.47
15:01:21.164,1.01,0.01,-84.72,0.47
15:01:21.262,-0.53,0.05,-85.04,0.47
15:01:21.286,-0.53,0.05,-85.04,0.49
15:01:21.375,-0.53,0.05,-85.04,0.49
15:01:21.398,-0.53,0.05,-85.04,0.49
15:01:21.494,-0.53,0.05,-85.04,0.49
15:01:21.511,-0.53,0.05,-85.04,0.49
15:01:21.618,1.33,0.25,-85.61,0.49
15:01:21.626,1.33,0.25,-85.61,0.48
15:01:21.719,1.33,0.25,-85.61,0.48
15:01:21.743,1.33,0.25,-85.61,0.48
15:01:21.834,1.33,0.25,-85.61,0.48
15:01:21.857,1.33,0.25,-85.61,0.48
15:01:21.948,1.33,0.25,-85.61,0.48
15:01:21.968,1.33,0.25,-85.61,0.48
15:01:22.063,18.58,2.86,-89.24,0.48
15:01:22.081,18.58,2.86,-89.24,0.48
15:01:22.183,18.58,2.86,-89.24,0.48
15:01:22.188,18.58,2.86,-89.24,0.48
15:01:22.301,18.58,2.86,-89.24,0.48
15:01:22.309,18.58,2.86,-89.24,0.48
15:01:22.412,18.58,2.86,-89.24,0.48
15:01:22.421,18.58,2.86,-89.24,0.48
15:01:22.526,22.99,3.87,-90.57,0.48
15:01:22.532,22.99,3.87,-90.57,0.48
15:01:22.640,22.99,3.87,-90.57,0.48
15:01:22.646,22.99,3.87,-90.57,0.48
15:01:22.756,22.99,3.87,-90.57,0.48
15:01:22.779,22.99,3.87,-90.57,0.48
15:01:22.868,22.99,3.87,-90.57,0.48
15:01:22.891,22.99,3.87,-90.57,0.48
15:01:22.986,22.99,3.87,-90.57,0.48
15:01:23.008,22.99,3.87,-90.57,0.48
15:01:23.098,22.99,3.87,-90.57,0.48
15:01:23.120,22.99,3.87,-90.57,0.48
15:01:23.216,23.77,3.93,-92.84,0.48
15:01:23.221,23.77,3.93,-92.84,0.49
15:01:23.330,23.77,3.93,-92.84,0.49
15:01:23.355,23.77,3.93,-92.84,0.49
15:01:23.445,23.77,3.93,-92.84,0.49
15:01:23.454,23.77,3.93,-92.84,0.49
15:01:23.559,23.77,3.93,-92.84,0.49
15:01:23.567,23.77,3.93,-92.84,0.49
15:01:23.673,23.77,3.93,-92.84,0.49
15:01:23.680,23.77,3.93,-92.84,0.49
15:01:23.789,23.77,3.93,-92.84,0.49
15:01:23.794,23.77,3.93,-92.84,0.49
15:01:23.905,23.77,3.93,-92.84,0.49
15:01:23.913,23.77,3.93,-92.84,0.49
15:01:24.021,23.77,3.93,-92.84,0.49
15:01:24.026,23.77,3.93,-92.84,0.49
15:01:24.129,-5.77,1.61,-87.46,0.49
15:01:24.140,-5.77,1.61,-87.46,0.5
15:01:24.247,-5.77,1.61,-87.46,0.5
15:01:24.257,-5.77,1.61,-87.46,0.5
15:01:24.363,-5.77,1.61,-87.46,0.5
15:01:24.372,-5.77,1.61,-87.46,0.5
15:01:24.475,-4.05,-1.42,-90.05,0.5
15:01:24.479,-4.05,-1.42,-90.05,0.51
15:01:24.589,-4.05,-1.42,-90.05,0.51
15:01:24.598,-4.05,-1.42,-90.05,0.51
15:01:24.709,-4.05,-1.42,-90.05,0.51
15:01:24.720,-4.05,-1.42,-90.05,0.51
15:01:24.825,-4.05,-1.42,-90.05,0.51
15:01:24.834,-4.05,-1.42,-90.05,0.51
15:01:24.944,-4.05,-1.42,-90.05,0.51
15:01:24.953,-4.05,-1.42,-90.05,0.51
15:01:25.061,-4.05,-1.42,-90.05,0.51
15:01:25.075,-4.05,-1.42,-90.05,0.51
15:01:25.179,-4.05,-1.42,-90.05,0.51
15:01:25.188,-4.05,-1.42,-90.05,0.51
15:01:25.288,-4.05,-1.42,-90.05,0.51
15:01:25.300,-4.05,-1.42,-90.05,0.51
15:01:25.415,-0.35,-2.73,-95.12,0.51
15:01:25.423,-0.35,-2.73,-95.12,0.53
15:01:25.526,-0.35,-2.73,-95.12,0.53
15:01:25.536,-0.35,-2.73,-95.12,0.53
15:01:25.642,-7.51,-2.45,-88.39,0.53
15:01:25.652,-7.51,-2.45,-88.39,0.53
15:01:25.762,-7.51,-2.45,-88.39,0.53
15:01:25.772,-7.51,-2.45,-88.39,0.53
15:01:25.872,-7.51,-2.45,-88.39,0.53
15:01:25.884,-7.51,-2.45,-88.39,0.53
15:01:25.985,-7.51,-2.45,-88.39,0.53
15:01:25.996,-7.51,-2.45,-88.39,0.53
15:01:26.095,-7.51,-2.45,-88.39,0.53
15:01:26.105,-7.51,-2.45,-88.39,0.53
15:01:26.210,-7.51,-2.45,-88.39,0.53
15:01:26.218,-7.51,-2.45,-88.39,0.53
15:01:26.311,-9.82,-1.31,-82.2,0.53
15:01:26.333,-9.82,-1.31,-82.2,0.53
15:01:26.444,-6.65,-0.68,-85.15,0.53
15:01:26.455,-6.65,-0.68,-85.15,0.53
15:01:26.553,-6.65,-0.68,-85.15,0.53
15:01:26.563,-6.65,-0.68,-85.15,0.53
15:01:26.672,-6.65,-0.68,-85.15,0.53
15:01:26.680,-6.65,-0.68,-85.15,0.53
15:01:26.785,-6.65,-0.68,-85.15,0.53
15:01:26.795,-6.65,-0.68,-85.15,0.53
15:01:26.903,-0.69,-1.72,-91.18,0.53
15:01:26.915,-0.69,-1.72,-91.18,0.54
15:01:27.018,-0.69,-1.72,-91.18,0.54
15:01:27.028,-0.69,-1.72,-91.18,0.54
15:01:27.147,-0.86,-1.03,-91.26,0.54
15:01:27.158,-0.86,-1.03,-91.26,0.54
15:01:27.239,-0.35,-0.58,-91.93,0.54
15:01:27.248,-0.35,-0.58,-91.93,0.54
15:01:27.362,0.25,-0.25,-92.67,0.54
15:01:27.373,0.25,-0.25,-92.67,0.54
15:01:27.480,0.05,0.0,-92.66,0.54
15:01:27.490,0.05,0.0,-92.66,0.55
15:01:27.589,0.05,0.0,-92.66,0.55
15:01:27.599,0.05,0.0,-92.66,0.55
15:01:27.701,-0.27,-0.01,-92.73,0.55
15:01:27.711,-0.27,-0.01,-92.73,0.55
15:01:27.808,-0.27,-0.01,-92.73,0.55
15:01:27.822,-0.27,-0.01,-92.73,0.55
15:01:27.925,-0.27,-0.01,-92.73,0.55
15:01:27.933,-0.27,-0.01,-92.73,0.55
15:01:28.048,-0.27,-0.01,-92.73,0.55
15:01:28.058,-0.27,-0.01,-92.73,0.55
15:01:28.161,-0.06,0.01,-93.63,0.55
15:01:28.168,-0.06,0.01,-93.63,0.56
15:01:28.276,-0.06,0.01,-93.63,0.56
15:01:28.288,-0.06,0.01,-93.63,0.56
15:01:28.399,-0.06,0.01,-93.63,0.56
15:01:28.410,-0.06,0.01,-93.63,0.56
15:01:28.483,-0.06,0.01,-93.63,0.56
15:01:28.519,-0.06,0.01,-93.63,0.56
15:01:28.597,-0.06,0.01,-93.63,0.56
15:01:28.600,-0.06,0.01,-93.63,0.56
15:01:28.712,-0.06,0.01,-93.63,0.56
15:01:28.715,-0.06,0.01,-93.63,0.56
15:01:28.827,-0.06,0.01,-93.63,0.56
15:01:28.829,-0.06,0.01,-93.63,0.56
15:01:28.941,-0.06,0.01,-93.63,0.56
15:01:28.944,-0.06,0.01,-93.63,0.56
15:01:29.056,-0.06,0.01,-93.63,0.56
15:01:29.059,-0.06,0.01,-93.63,0.56
15:01:29.171,-0.06,0.01,-93.63,0.56
15:01:29.173,-0.06,0.01,-93.63,0.56
15:01:29.285,-0.06,0.01,-93.63,0.56
15:01:29.288,-0.06,0.01,-93.63,0.56
15:01:29.400,-0.06,0.01,-93.63,0.56
15:01:29.403,-0.06,0.01,-93.63,0.56
15:01:29.515,-0.06,0.01,-93.63,0.56
15:01:29.518,-0.06,0.01,-93.63,0.56
15:01:29.629,-0.06,0.01,-93.63,0.56
15:01:29.632,-0.06,0.01,-93.63,0.56
15:01:29.744,-0.06,0.01,-93.63,0.56
15:01:29.747,-0.06,0.01,-93.63,0.56
15:01:29.859,-0.06,0.01,-93.63,0.56
15:01:29.862,-0.06,0.01,-93.63,0.56
15:01:29.973,-0.06,0.01,-93.63,0.56
15:01:29.977,-0.06,0.01,-93.63,0.56
