Time,Roll_X(deg),Pitch_Y(deg),Yaw_Z(deg),Altitude(m)
15:18:22.422,25.88,-66.5,201.44,0.0
15:18:22.426,25.88,-66.5,201.44,34.32
15:18:22.537,25.88,-66.5,201.44,34.32
15:18:22.540,25.88,-66.5,201.44,34.32
15:18:22.651,25.88,-66.5,201.44,34.32
15:18:22.663,25.88,-66.5,201.44,34.32
15:18:22.766,25.88,-66.5,201.44,34.32
15:18:22.779,25.88,-66.5,201.44,34.32
15:18:22.881,25.88,-66.5,201.44,34.32
15:18:22.883,25.88,-66.5,201.44,34.32
15:18:22.995,25.88,-66.5,201.44,34.32
15:18:22.998,25.88,-66.5,201.44,34.32
15:18:23.110,25.88,-66.5,201.44,34.32
15:18:23.147,25.88,-66.5,201.44,34.32
15:18:23.224,25.88,-66.5,201.44,34.32
15:18:23.268,25.88,-66.5,201.44,34.32
15:18:23.375,25.88,-66.5,201.44,34.32
15:18:23.387,25.88,-66.5,201.44,34.32
15:18:23.481,25.88,-66.5,201.44,34.32
15:18:23.501,25.88,-66.5,201.44,34.32
15:18:23.594,25.88,-66.5,201.44,34.32
15:18:23.605,25.88,-66.5,201.44,34.32
15:18:23.705,25.88,-66.5,201.44,34.32
15:18:23.718,25.88,-66.5,201.44,34.32
15:18:23.812,0.0,0.0,0.0,0.0
15:18:23.827,0.0,0.0,0.0,0.0
15:18:23.939,0.05,0.01,-3.47,0.0
15:18:23.952,0.05,0.01,-3.47,-0.06
15:18:24.058,0.05,0.01,-3.47,-0.06
15:18:24.072,0.05,0.01,-3.47,-0.06
15:18:24.161,0.02,0.05,-3.81,-0.06
15:18:24.176,0.02,0.05,-3.81,-0.06
15:18:24.257,0.01,0.02,-3.97,-0.06
15:18:24.292,0.01,0.02,-3.97,-0.06
15:18:24.371,0.01,0.02,-3.97,-0.06
15:18:24.409,0.01,0.02,-3.97,-0.06
15:18:24.519,-0.03,0.01,-4.3,-0.06
15:18:24.536,-0.03,0.01,-4.3,-0.06
15:18:24.623,-0.03,0.01,-4.3,-0.06
15:18:24.635,-0.03,0.01,-4.3,-0.06
15:18:24.737,0.02,-0.03,-4.71,-0.06
15:18:24.749,0.02,-0.03,-4.71,-0.06
15:18:24.861,-0.03,0.04,-4.84,-0.06
15:18:24.872,-0.03,0.04,-4.84,-0.06
15:18:24.979,-0.03,0.04,-4.84,-0.06
15:18:24.992,-0.03,0.04,-4.84,-0.06
15:18:25.081,-0.03,0.04,-4.84,-0.06
15:18:25.094,-0.03,0.04,-4.84,-0.06
15:18:25.196,0.03,0.01,-5.44,-0.06
15:18:25.209,0.03,0.01,-5.44,-0.05
15:18:25.308,-0.04,0.02,-5.55,-0.05
15:18:25.319,-0.04,0.02,-5.55,-0.04
15:18:25.432,-0.09,0.01,-5.69,-0.04
15:18:25.446,-0.09,0.01,-5.69,-0.04
15:18:25.541,-0.09,0.01,-5.69,-0.04
15:18:25.553,-0.09,0.01,-5.69,-0.04
15:18:25.684,-0.09,0.01,-5.69,-0.04
15:18:25.699,-0.09,0.01,-5.69,-0.04
15:18:25.748,0.03,0.0,-6.33,-0.04
15:18:25.760,0.03,0.0,-6.33,-0.03
15:18:25.893,-0.08,0.02,-6.41,-0.03
15:18:25.906,-0.08,0.02,-6.41,-0.02
15:18:25.977,0.0,-0.02,-6.67,-0.02
15:18:26.016,0.0,-0.02,-6.67,-0.02
15:18:26.092,0.05,-0.01,-6.89,-0.02
15:18:26.094,0.05,-0.01,-6.89,-0.01
15:18:26.207,0.12,0.03,-7.14,-0.01
15:18:26.210,0.12,0.03,-7.14,0.0
15:18:26.321,0.02,-0.04,-7.23,0.0
15:18:26.324,0.02,-0.04,-7.23,0.01
15:18:26.436,0.05,0.02,-7.44,0.01
15:18:26.440,0.05,0.02,-7.44,0.01
15:18:26.551,0.11,0.01,-7.67,0.01
15:18:26.554,0.11,0.01,-7.67,0.02
15:18:26.665,-0.07,0.05,-7.68,0.02
15:18:26.669,-0.07,0.05,-7.68,0.03
15:18:26.780,-0.07,0.05,-7.68,0.03
15:18:26.783,-0.07,0.05,-7.68,0.03
15:18:26.895,-0.06,0.03,-8.06,0.03
15:18:26.898,-0.06,0.03,-8.06,0.05
15:18:27.009,0.02,0.03,-8.31,0.05
15:18:27.012,0.02,0.03,-8.31,0.06
15:18:27.124,0.02,0.03,-8.31,0.06
15:18:27.127,0.02,0.03,-8.31,0.06
15:18:27.239,-0.02,0.03,-8.64,0.06
15:18:27.242,-0.02,0.03,-8.64,0.09
15:18:27.354,-0.02,0.03,-8.64,0.09
15:18:27.356,-0.02,0.03,-8.64,0.09
15:18:27.468,0.05,0.03,-9.06,0.09
15:18:27.471,0.05,0.03,-9.06,0.12
15:18:27.583,-0.04,0.0,-9.16,0.12
15:18:27.586,-0.04,0.0,-9.16,0.13
15:18:27.698,-0.04,0.0,-9.16,0.13
15:18:27.701,-0.04,0.0,-9.16,0.13
15:18:27.812,-0.01,0.0,-9.54,0.13
15:18:27.815,-0.01,0.0,-9.54,0.18
15:18:27.927,-0.1,-0.12,-9.65,0.18
15:18:27.930,-0.1,-0.12,-9.65,0.2
15:18:28.042,-0.49,-0.21,-9.48,0.2
15:18:28.045,-0.49,-0.21,-9.48,0.21
15:18:28.156,-0.38,-0.3,-9.75,0.21
15:18:28.160,-0.38,-0.3,-9.75,0.23
15:18:28.271,-0.51,-0.19,-9.82,0.23
15:18:28.274,-0.51,-0.19,-9.82,0.25
15:18:28.386,-0.22,-0.5,-10.56,0.25
15:18:28.389,-0.22,-0.5,-10.56,0.27
15:18:28.500,-0.22,-0.5,-10.56,0.27
15:18:28.503,-0.22,-0.5,-10.56,0.27
15:18:28.615,-3.36,1.8,-8.35,0.27
15:18:28.618,-3.36,1.8,-8.35,0.31
15:18:28.730,-4.56,4.65,-9.64,0.31
15:18:28.733,-4.56,4.65,-9.64,0.33
15:18:28.845,-1.34,4.36,-14.25,0.33
15:18:28.847,-1.34,4.36,-14.25,0.35
15:18:28.959,-1.34,4.36,-14.25,0.35
15:18:28.963,-1.34,4.36,-14.25,0.35
15:18:29.075,-2.37,-1.6,-18.78,0.35
15:18:29.079,-2.37,-1.6,-18.78,0.39
15:18:29.193,-13.71,-3.0,-13.49,0.39
15:18:29.197,-13.71,-3.0,-13.49,0.42
15:18:29.304,-24.97,-4.16,-7.94,0.42
15:18:29.307,-24.97,-4.16,-7.94,0.45
15:18:29.427,-33.07,-4.65,-3.86,0.45
15:18:29.432,-33.07,-4.65,-3.86,0.47
15:18:29.539,-36.62,-5.44,-3.29,0.47
15:18:29.544,-36.62,-5.44,-3.29,0.49
15:18:29.653,-38.51,-6.24,-3.02,0.49
15:18:29.658,-38.51,-6.24,-3.02,0.51
15:18:29.767,-38.51,-6.24,-3.02,0.51
15:18:29.774,-38.51,-6.24,-3.02,0.51
15:18:29.882,-39.82,-6.37,-2.99,0.51
15:18:29.890,-39.82,-6.37,-2.99,0.57
15:18:30.000,-40.19,-5.41,-2.32,0.57
15:18:30.011,-40.19,-5.41,-2.32,0.6
15:18:30.116,-40.19,-5.41,-2.32,0.6
15:18:30.124,-40.19,-5.41,-2.32,0.6
15:18:30.235,-38.5,-5.49,-4.06,0.6
15:18:30.245,-38.5,-5.49,-4.06,0.65
15:18:30.348,-38.58,-5.53,-4.08,0.65
15:18:30.357,-38.58,-5.53,-4.08,0.68
15:18:30.470,-36.41,-6.68,-4.67,0.68
15:18:30.479,-36.41,-6.68,-4.67,0.7
15:18:30.579,-31.54,-7.36,-5.95,0.7
15:18:30.592,-31.54,-7.36,-5.95,0.72
15:18:30.700,-31.54,-7.36,-5.95,0.72
15:18:30.710,-31.54,-7.36,-5.95,0.72
15:18:30.816,-16.54,-5.9,-11.87,0.72
15:18:30.825,-16.54,-5.9,-11.87,0.78
15:18:30.915,-9.4,-4.45,-14.93,0.78
15:18:30.939,-9.4,-4.45,-14.93,0.81
15:18:31.028,-9.4,-4.45,-14.93,0.81
15:18:31.056,-9.4,-4.45,-14.93,0.81
15:18:31.143,-2.45,-2.41,-19.0,0.81
15:18:31.167,-2.45,-2.41,-19.0,0.85
15:18:31.259,-2.45,-2.41,-19.0,0.85
15:18:31.298,-2.45,-2.41,-19.0,0.85
15:18:31.372,-2.45,-2.41,-19.0,0.85
15:18:31.400,-2.45,-2.41,-19.0,0.85
15:18:31.486,-0.79,-2.94,-20.62,0.85
15:18:31.510,-0.79,-2.94,-20.62,0.92
15:18:31.606,4.49,-3.63,-23.04,0.92
15:18:31.628,4.49,-3.63,-23.04,0.93
15:18:31.724,13.93,-2.6,-28.92,0.93
15:18:31.748,13.93,-2.6,-28.92,0.96
15:18:31.835,13.93,-2.6,-28.92,0.96
15:18:31.845,13.93,-2.6,-28.92,0.96
15:18:31.956,29.15,-2.88,-37.23,0.96
15:18:31.982,29.15,-2.88,-37.23,0.99
15:18:32.075,34.35,-2.5,-40.29,0.99
15:18:32.097,34.35,-2.5,-40.29,1.01
15:18:32.182,35.27,-1.48,-40.13,1.01
15:18:32.192,35.27,-1.48,-40.13,1.03
15:18:32.303,34.81,-0.44,-38.93,1.03
15:18:32.308,34.81,-0.44,-38.93,1.05
15:18:32.429,33.14,-0.54,-37.02,1.05
15:18:32.434,33.14,-0.54,-37.02,1.06
15:18:32.541,30.04,-0.74,-34.95,1.06
15:18:32.549,30.04,-0.74,-34.95,1.08
15:18:32.653,27.55,-1.11,-33.1,1.08
15:18:32.678,27.55,-1.11,-33.1,1.09
15:18:32.765,27.55,-1.11,-33.1,1.09
15:18:32.781,27.55,-1.11,-33.1,1.09
15:18:32.887,27.55,-1.11,-33.1,1.09
15:18:32.897,27.55,-1.11,-33.1,1.09
15:18:33.002,27.55,-1.11,-33.1,1.09
15:18:33.013,27.55,-1.11,-33.1,1.09
15:18:33.117,27.55,-1.11,-33.1,1.09
15:18:33.132,27.55,-1.11,-33.1,1.09
15:18:33.234,27.55,-1.11,-33.1,1.09
15:18:33.243,27.55,-1.11,-33.1,1.09
15:18:33.351,27.55,-1.11,-33.1,1.09
15:18:33.362,27.55,-1.11,-33.1,1.09
15:18:33.469,27.55,-1.11,-33.1,1.09
15:18:33.479,27.55,-1.11,-33.1,1.09
15:18:33.547,27.55,-1.11,-33.1,1.09
15:18:33.579,27.55,-1.11,-33.1,1.09
15:18:33.662,27.55,-1.11,-33.1,1.09
15:18:33.665,27.55,-1.11,-33.1,1.09
15:18:33.777,27.55,-1.11,-33.1,1.09
15:18:33.779,27.55,-1.11,-33.1,1.09
15:18:33.891,27.55,-1.11,-33.1,1.09
15:18:33.894,27.55,-1.11,-33.1,1.09
15:18:34.006,27.55,-1.11,-33.1,1.09
15:18:34.008,27.55,-1.11,-33.1,1.09
15:18:34.121,27.55,-1.11,-33.1,1.09
15:18:34.123,27.55,-1.11,-33.1,1.09
15:18:34.235,27.55,-1.11,-33.1,1.09
15:18:34.238,27.55,-1.11,-33.1,1.09
15:18:34.350,27.55,-1.11,-33.1,1.09
15:18:34.353,27.55,-1.11,-33.1,1.09
15:18:34.465,27.55,-1.11,-33.1,1.09
15:18:34.468,27.55,-1.11,-33.1,1.09
15:18:34.579,27.55,-1.11,-33.1,1.09
15:18:34.582,27.55,-1.11,-33.1,1.09
15:18:34.694,27.55,-1.11,-33.1,1.09
15:18:34.697,27.55,-1.11,-33.1,1.09
15:18:34.809,27.55,-1.11,-33.1,1.09
15:18:34.812,27.55,-1.11,-33.1,1.09
15:18:34.923,27.55,-1.11,-33.1,1.09
15:18:34.926,27.55,-1.11,-33.1,1.09
15:18:35.038,27.55,-1.11,-33.1,1.09
15:18:35.041,27.55,-1.11,-33.1,1.09
15:18:35.153,119.22,-14.05,-152.05,1.09
15:18:35.156,119.22,-14.05,-152.05,1.13
15:18:35.267,119.22,-14.05,-152.05,1.13
15:18:35.270,119.22,-14.05,-152.05,1.13
15:18:35.382,117.66,-13.78,-151.48,1.13
15:18:35.386,117.66,-13.78,-151.48,1.12
15:18:35.497,117.66,-13.78,-151.48,1.12
15:18:35.500,117.66,-13.78,-151.48,1.12
15:18:35.612,116.84,-14.17,-151.26,1.12
15:18:35.614,116.84,-14.17,-151.26,1.11
15:18:35.726,116.8,-14.1,-151.55,1.11
15:18:35.729,116.8,-14.1,-151.55,1.11
15:18:35.841,115.03,-14.35,-149.96,1.11
15:18:35.844,115.03,-14.35,-149.96,1.11
15:18:35.956,113.91,-13.8,-149.06,1.11
15:18:35.959,113.91,-13.8,-149.06,1.1
15:18:36.072,115.11,-13.41,-150.32,1.1
15:18:36.076,115.11,-13.41,-150.32,1.1
15:18:36.186,115.11,-13.41,-150.32,1.1
15:18:36.189,115.11,-13.41,-150.32,1.1
15:18:36.304,113.76,-14.46,-149.28,1.1
15:18:36.309,113.76,-14.46,-149.28,1.09
15:18:36.417,113.32,-15.08,-149.08,1.09
15:18:36.422,113.32,-15.08,-149.08,1.09
15:18:36.534,113.32,-15.08,-149.08,1.09
15:18:36.541,113.32,-15.08,-149.08,1.09
15:18:36.647,113.32,-15.08,-149.08,1.09
15:18:36.653,113.32,-15.08,-149.08,1.09
15:18:36.763,103.86,-16.43,-140.24,1.09
15:18:36.772,103.86,-16.43,-140.24,1.07
15:18:36.887,100.48,-16.46,-136.98,1.07
15:18:36.896,100.48,-16.46,-136.98,1.07
15:18:36.989,98.59,-16.11,-135.25,1.07
15:18:37.011,98.59,-16.11,-135.25,1.06
15:18:37.104,94.19,-16.12,-131.03,1.06
15:18:37.129,94.19,-16.12,-131.03,1.06
15:18:37.222,87.59,-16.52,-124.56,1.06
15:18:37.246,87.59,-16.52,-124.56,1.05
15:18:37.337,81.56,-16.93,-118.62,1.05
15:18:37.345,81.56,-16.93,-118.62,1.05
15:18:37.459,81.56,-16.93,-118.62,1.05
15:18:37.470,81.56,-16.93,-118.62,1.05
15:18:37.568,81.56,-16.93,-118.62,1.05
15:18:37.578,81.56,-16.93,-118.62,1.05
15:18:37.684,60.51,-16.93,-98.45,1.05
15:18:37.694,60.51,-16.93,-98.45,1.03
15:18:37.803,53.7,-16.56,-91.68,1.03
15:18:37.813,53.7,-16.56,-91.68,1.03
15:18:37.913,53.7,-16.56,-91.68,1.03
15:18:37.923,53.7,-16.56,-91.68,1.03
15:18:38.026,53.7,-16.56,-91.68,1.03
15:18:38.030,53.7,-16.56,-91.68,1.03
15:18:38.140,39.27,-15.49,-77.95,1.03
15:18:38.145,39.27,-15.49,-77.95,1.02
15:18:38.257,39.27,-15.49,-77.95,1.02
15:18:38.280,39.27,-15.49,-77.95,1.02
15:18:38.368,31.17,-14.65,-70.1,1.02
15:18:38.392,31.17,-14.65,-70.1,1.01
15:18:38.480,31.17,-14.65,-70.1,1.01
15:18:38.506,31.17,-14.65,-70.1,1.01
15:18:38.609,28.62,-14.06,-67.64,1.01
15:18:38.616,28.62,-14.06,-67.64,1.0
15:18:38.710,28.23,-14.04,-67.43,1.0
15:18:38.733,28.23,-14.04,-67.43,1.0
15:18:38.841,28.23,-14.04,-67.43,1.0
15:18:38.849,28.23,-14.04,-67.43,1.0
15:18:38.939,28.55,-13.95,-68.19,1.0
15:18:38.962,28.55,-13.95,-68.19,0.99
15:18:39.057,28.55,-13.95,-68.19,0.99
15:18:39.081,28.55,-13.95,-68.19,0.99
15:18:39.172,30.02,-13.9,-70.18,0.99
15:18:39.194,30.02,-13.9,-70.18,0.99
15:18:39.287,30.02,-13.9,-70.18,0.99
15:18:39.292,30.02,-13.9,-70.18,0.99
15:18:39.404,29.3,-13.46,-70.01,0.99
15:18:39.412,29.3,-13.46,-70.01,0.98
15:18:39.518,31.4,-13.32,-72.03,0.98
15:18:39.525,31.4,-13.32,-72.03,0.97
15:18:39.634,31.71,-13.43,-72.41,0.97
15:18:39.641,31.71,-13.43,-72.41,0.97
15:18:39.750,30.03,-13.49,-71.02,0.97
15:18:39.762,30.03,-13.49,-71.02,0.96
15:18:39.866,26.79,-13.29,-68.11,0.96
15:18:39.874,26.79,-13.29,-68.11,0.96
15:18:39.979,27.66,-13.67,-69.13,0.96
15:18:39.989,27.66,-13.67,-69.13,0.95
15:18:40.099,29.77,-13.44,-71.36,0.95
15:18:40.108,29.77,-13.44,-71.36,0.95
15:18:40.215,29.77,-13.44,-71.36,0.95
15:18:40.227,29.77,-13.44,-71.36,0.95
15:18:40.330,30.16,-13.34,-72.52,0.95
15:18:40.342,30.16,-13.34,-72.52,0.94
15:18:40.444,29.55,-13.41,-72.88,0.94
15:18:40.457,29.55,-13.41,-72.88,0.94
15:18:40.565,27.37,-13.56,-72.56,0.94
15:18:40.575,27.37,-13.56,-72.56,0.94
15:18:40.682,27.37,-13.56,-72.56,0.94
15:18:40.690,27.37,-13.56,-72.56,0.94
15:18:40.798,28.16,-13.28,-75.64,0.94
15:18:40.811,28.16,-13.28,-75.64,0.93
15:18:40.914,28.66,-13.21,-76.4,0.93
15:18:40.925,28.66,-13.21,-76.4,0.93
15:18:41.030,25.5,-13.02,-73.03,0.93
15:18:41.041,25.5,-13.02,-73.03,0.93
15:18:41.140,12.92,-10.35,-59.68,0.93
15:18:41.152,12.92,-10.35,-59.68,0.93
15:18:41.253,3.73,-5.96,-49.66,0.93
15:18:41.263,3.73,-5.96,-49.66,0.92
15:18:41.369,3.73,-5.96,-49.66,0.92
15:18:41.379,3.73,-5.96,-49.66,0.92
15:18:41.484,-5.3,3.51,-40.1,0.92
15:18:41.498,-5.3,3.51,-40.1,0.92
15:18:41.598,-6.8,7.09,-39.24,0.92
15:18:41.606,-6.8,7.09,-39.24,0.92
15:18:41.709,-7.7,10.26,-38.96,0.92
15:18:41.720,-7.7,10.26,-38.96,0.92
15:18:41.831,-8.19,12.68,-38.4,0.92
15:18:41.843,-8.19,12.68,-38.4,0.92
15:18:41.948,-8.69,14.43,-37.94,0.92
15:18:41.960,-8.69,14.43,-37.94,0.92
15:18:42.035,-8.69,14.61,-38.0,0.92
15:18:42.073,-8.69,14.61,-38.0,0.92
15:18:42.178,-8.74,13.48,-38.05,0.92
15:18:42.191,-8.74,13.48,-38.05,0.92
15:18:42.264,-8.74,13.48,-38.05,0.92
15:18:42.301,-8.74,13.48,-38.05,0.92
15:18:42.379,-11.29,15.01,-36.79,0.92
15:18:42.382,-11.29,15.01,-36.79,0.91
15:18:42.493,-12.5,18.58,-36.59,0.91
15:18:42.496,-12.5,18.58,-36.59,0.91
15:18:42.608,-12.5,18.58,-36.59,0.91
15:18:42.611,-12.5,18.58,-36.59,0.91
15:18:42.723,-11.77,25.85,-37.01,0.91
15:18:42.726,-11.77,25.85,-37.01,0.9
15:18:42.838,-10.7,28.31,-36.73,0.9
15:18:42.840,-10.7,28.31,-36.73,0.9
15:18:42.952,-9.23,29.37,-36.41,0.9
15:18:42.955,-9.23,29.37,-36.41,0.9
15:18:43.067,-9.23,29.37,-36.41,0.9
15:18:43.070,-9.23,29.37,-36.41,0.9
15:18:43.182,-9.23,29.37,-36.41,0.9
15:18:43.184,-9.23,29.37,-36.41,0.9
15:18:43.296,-8.65,29.05,-35.42,0.9
15:18:43.299,-8.65,29.05,-35.42,0.89
15:18:43.411,-8.65,29.05,-35.42,0.89
15:18:43.414,-8.65,29.05,-35.42,0.89
15:18:43.528,-8.65,29.05,-35.42,0.89
15:18:43.537,-8.65,29.05,-35.42,0.89
15:18:43.640,-8.7,25.87,-34.35,0.89
15:18:43.643,-8.7,25.87,-34.35,0.89
15:18:43.755,-9.21,24.57,-34.48,0.89
15:18:43.758,-9.21,24.57,-34.48,0.89
15:18:43.870,-9.21,24.57,-34.48,0.89
15:18:43.873,-9.21,24.57,-34.48,0.89
15:18:43.984,-9.21,24.57,-34.48,0.89
15:18:43.987,-9.21,24.57,-34.48,0.89
15:18:44.099,-9.21,24.57,-34.48,0.89
15:18:44.102,-9.21,24.57,-34.48,0.89
15:18:44.214,-9.21,24.57,-34.48,0.89
15:18:44.216,-9.21,24.57,-34.48,0.89
15:18:44.328,-9.21,24.57,-34.48,0.89
15:18:44.331,-9.21,24.57,-34.48,0.89
15:18:44.443,-9.21,24.57,-34.48,0.89
15:18:44.446,-9.21,24.57,-34.48,0.89
15:18:44.558,-9.21,24.57,-34.48,0.89
15:18:44.561,-9.21,24.57,-34.48,0.89
15:18:44.672,-9.21,24.57,-34.48,0.89
15:18:44.676,-9.21,24.57,-34.48,0.89
15:18:44.787,-9.21,24.57,-34.48,0.89
15:18:44.790,-9.21,24.57,-34.48,0.89
15:18:44.905,-9.21,24.57,-34.48,0.89
15:18:44.908,-9.21,24.57,-34.48,0.89
15:18:45.019,-9.21,24.57,-34.48,0.89
15:18:45.023,-9.21,24.57,-34.48,0.89
15:18:45.135,-9.21,24.57,-34.48,0.89
15:18:45.141,-9.21,24.57,-34.48,0.89
15:18:45.249,-9.21,24.57,-34.48,0.89
15:18:45.256,-9.21,24.57,-34.48,0.89
15:18:45.366,-9.21,24.57,-34.48,0.89
15:18:45.376,-9.21,24.57,-34.48,0.89
15:18:45.481,-9.21,24.57,-34.48,0.89
15:18:45.493,-9.21,24.57,-34.48,0.89
15:18:45.598,-9.21,24.57,-34.48,0.89
15:18:45.607,-9.21,24.57,-34.48,0.89
15:18:45.723,-9.21,24.57,-34.48,0.89
15:18:45.733,-9.21,24.57,-34.48,0.89
15:18:45.827,-9.21,24.57,-34.48,0.89
15:18:45.836,-9.21,24.57,-34.48,0.89
15:18:45.943,-9.21,24.57,-34.48,0.89
15:18:45.949,-9.21,24.57,-34.48,0.89
15:18:46.067,-9.21,24.57,-34.48,0.89
15:18:46.076,-9.21,24.57,-34.48,0.89
15:18:46.181,-9.21,24.57,-34.48,0.89
15:18:46.190,-9.21,24.57,-34.48,0.89
15:18:46.294,-5.63,-4.74,-47.42,0.89
15:18:46.302,-5.63,-4.74,-47.42,0.87
15:18:46.404,-5.63,-4.74,-47.42,0.87
15:18:46.413,-5.63,-4.74,-47.42,0.87
15:18:46.526,1.11,-8.16,-54.73,0.87
15:18:46.537,1.11,-8.16,-54.73,0.86
15:18:46.635,1.11,-8.16,-54.73,0.86
15:18:46.646,1.11,-8.16,-54.73,0.86
15:18:46.756,35.24,-14.81,-90.45,0.86
15:18:46.765,35.24,-14.81,-90.45,0.86
15:18:46.854,35.24,-14.81,-90.45,0.86
15:18:46.878,35.24,-14.81,-90.45,0.86
15:18:46.971,93.02,-15.2,-149.84,0.86
15:18:46.978,93.02,-15.2,-149.84,0.84
15:18:47.084,93.02,-15.2,-149.84,0.84
15:18:47.111,93.02,-15.2,-149.84,0.84
15:18:47.202,111.41,-13.62,-169.27,0.84
15:18:47.212,111.41,-13.62,-169.27,0.83
15:18:47.319,111.41,-13.62,-169.27,0.83
15:18:47.329,111.41,-13.62,-169.27,0.83
15:18:47.431,114.67,-11.8,-172.82,0.83
15:18:47.439,114.67,-11.8,-172.82,0.82
15:18:47.559,113.28,-11.6,-171.63,0.82
15:18:47.569,113.28,-11.6,-171.63,0.82
15:18:47.665,111.16,-11.96,-169.68,0.82
15:18:47.676,111.16,-11.96,-169.68,0.81
15:18:47.776,111.16,-11.96,-169.68,0.81
15:18:47.786,111.16,-11.96,-169.68,0.81
15:18:47.900,107.25,-12.86,-166.44,0.81
15:18:47.927,107.25,-12.86,-166.44,0.8
15:18:48.016,100.83,-14.12,-160.56,0.8
15:18:48.028,100.83,-14.12,-160.56,0.79
15:18:48.131,84.28,-15.69,-144.13,0.79
15:18:48.139,84.28,-15.69,-144.13,0.79
15:18:48.250,51.3,-16.11,-110.29,0.79
15:18:48.261,51.3,-16.11,-110.29,0.79
15:18:48.364,51.3,-16.11,-110.29,0.79
15:18:48.372,51.3,-16.11,-110.29,0.79
15:18:48.479,2.13,-7.82,-60.12,0.79
15:18:48.490,2.13,-7.82,-60.12,0.77
15:18:48.594,-5.21,-3.0,-52.78,0.77
15:18:48.602,-5.21,-3.0,-52.78,0.77
15:18:48.714,-5.21,-3.0,-52.78,0.77
15:18:48.726,-5.21,-3.0,-52.78,0.77
15:18:48.827,-10.28,4.15,-47.1,0.77
15:18:48.839,-10.28,4.15,-47.1,0.76
15:18:48.940,-11.52,6.59,-45.83,0.76
15:18:48.951,-11.52,6.59,-45.83,0.76
15:18:49.054,-11.52,6.59,-45.83,0.76
15:18:49.066,-11.52,6.59,-45.83,0.76
15:18:49.166,-13.21,9.01,-44.25,0.76
15:18:49.177,-13.21,9.01,-44.25,0.76
15:18:49.280,-12.83,8.78,-44.66,0.76
15:18:49.291,-12.83,8.78,-44.66,0.76
15:18:49.399,-12.14,7.73,-45.31,0.76
15:18:49.410,-12.14,7.73,-45.31,0.76
15:18:49.512,-12.14,7.73,-45.31,0.76
15:18:49.526,-12.14,7.73,-45.31,0.76
15:18:49.635,-9.77,2.86,-47.97,0.76
15:18:49.652,-9.77,2.86,-47.97,0.76
15:18:49.747,-2.97,-3.34,-55.23,0.76
15:18:49.759,-2.97,-3.34,-55.23,0.76
15:18:49.834,-2.97,-3.34,-55.23,0.76
15:18:49.868,-2.97,-3.34,-55.23,0.76
15:18:49.980,41.94,-14.08,-102.53,0.76
15:18:49.988,41.94,-14.08,-102.53,0.77
15:18:50.063,41.94,-14.08,-102.53,0.77
15:18:50.066,41.94,-14.08,-102.53,0.77
15:18:50.178,110.24,-10.71,-173.31,0.77
15:18:50.181,110.24,-10.71,-173.31,0.77
15:18:50.293,110.24,-10.71,-173.31,0.77
15:18:50.295,110.24,-10.71,-173.31,0.77
15:18:50.407,118.28,-12.67,-183.21,0.77
15:18:50.410,118.28,-12.67,-183.21,0.78
15:18:50.522,95.39,-18.04,-160.27,0.78
15:18:50.525,95.39,-18.04,-160.27,0.78
15:18:50.637,95.39,-18.04,-160.27,0.78
15:18:50.639,95.39,-18.04,-160.27,0.78
15:18:50.751,3.72,-10.55,-65.95,0.78
15:18:50.754,3.72,-10.55,-65.95,0.78
15:18:50.866,-2.42,-2.5,-58.53,0.78
15:18:50.869,-2.42,-2.5,-58.53,0.78
15:18:50.981,-6.92,4.39,-54.32,0.78
15:18:50.983,-6.92,4.39,-54.32,0.78
15:18:51.096,-11.16,9.23,-51.7,0.78
15:18:51.098,-11.16,9.23,-51.7,0.78
15:18:51.210,-15.13,10.8,-49.35,0.78
15:18:51.213,-15.13,10.8,-49.35,0.78
15:18:51.325,-18.91,10.65,-46.35,0.78
15:18:51.328,-18.91,10.65,-46.35,0.78
15:18:51.440,-21.04,9.14,-43.39,0.78
15:18:51.443,-21.04,9.14,-43.39,0.78
15:18:51.555,-21.44,8.56,-42.24,0.78
15:18:51.558,-21.44,8.56,-42.24,0.78
15:18:51.669,-21.66,8.68,-40.57,0.78
15:18:51.673,-21.66,8.68,-40.57,0.78
15:18:51.784,-22.28,8.47,-38.02,0.78
15:18:51.787,-22.28,8.47,-38.02,0.78
15:18:51.899,-22.57,9.59,-36.6,0.78
15:18:51.901,-22.57,9.59,-36.6,0.77
15:18:52.013,-20.0,10.77,-36.36,0.77
15:18:52.016,-20.0,10.77,-36.36,0.77
15:18:52.128,-14.58,10.57,-39.05,0.77
15:18:52.131,-14.58,10.57,-39.05,0.76
15:18:52.243,-14.77,8.23,-39.68,0.76
15:18:52.246,-14.77,8.23,-39.68,0.76
15:18:52.357,-13.86,7.49,-40.39,0.76
15:18:52.360,-13.86,7.49,-40.39,0.75
15:18:52.472,-13.2,6.49,-41.18,0.75
15:18:52.475,-13.2,6.49,-41.18,0.74
15:18:52.587,-12.47,5.6,-42.0,0.74
15:18:52.590,-12.47,5.6,-42.0,0.73
15:18:52.701,-11.54,4.8,-42.93,0.73
15:18:52.705,-11.54,4.8,-42.93,0.73
15:18:52.816,-10.56,4.0,-43.94,0.73
15:18:52.819,-10.56,4.0,-43.94,0.72
15:18:52.931,-9.51,3.22,-45.04,0.72
15:18:52.934,-9.51,3.22,-45.04,0.71
15:18:53.046,-9.51,3.22,-45.04,0.71
15:18:53.048,-9.51,3.22,-45.04,0.71
15:18:53.160,-7.05,1.86,-47.58,0.71
15:18:53.163,-7.05,1.86,-47.58,0.69
15:18:53.275,-5.53,1.24,-49.12,0.69
15:18:53.278,-5.53,1.24,-49.12,0.69
15:18:53.390,-3.88,0.66,-50.81,0.69
15:18:53.393,-3.88,0.66,-50.81,0.68
15:18:53.504,-1.97,0.19,-52.73,0.68
15:18:53.507,-1.97,0.19,-52.73,0.67
15:18:53.623,-0.06,0.01,-54.66,0.67
15:18:53.629,-0.06,0.01,-54.66,0.67
15:18:53.737,0.04,-0.01,-54.93,0.67
15:18:53.740,0.04,-0.01,-54.93,0.66
15:18:53.852,-0.09,-0.04,-54.99,0.66
15:18:53.857,-0.09,-0.04,-54.99,0.65
15:18:53.970,-0.06,0.01,-55.2,0.65
15:18:53.979,-0.06,0.01,-55.2,0.64
15:18:54.083,-0.03,0.01,-55.4,0.64
15:18:54.091,-0.03,0.01,-55.4,0.63
15:18:54.200,0.05,0.01,-55.66,0.63
15:18:54.208,0.05,0.01,-55.66,0.62
15:18:54.312,0.05,0.01,-55.66,0.62
15:18:54.321,0.05,0.01,-55.66,0.62
15:18:54.428,-0.07,-0.05,-55.92,0.62
15:18:54.435,-0.07,-0.05,-55.92,0.6
15:18:54.551,0.02,-0.01,-56.17,0.6
15:18:54.561,0.02,-0.01,-56.17,0.6
15:18:54.663,-0.04,0.02,-56.3,0.6
15:18:54.674,-0.04,0.02,-56.3,0.59
15:18:54.778,-0.15,0.01,-56.38,0.59
15:18:54.787,-0.15,0.01,-56.38,0.58
15:18:54.900,0.0,0.0,-56.7,0.58
15:18:54.907,0.0,0.0,-56.7,0.57
15:18:55.010,0.04,0.0,-56.92,0.57
15:18:55.017,0.04,0.0,-56.92,0.56
15:18:55.117,0.04,0.0,-56.92,0.56
15:18:55.127,0.04,0.0,-56.92,0.56
15:18:55.232,0.04,0.0,-56.92,0.56
15:18:55.240,0.04,0.0,-56.92,0.56
15:18:55.355,0.04,0.0,-56.92,0.56
15:18:55.366,0.04,0.0,-56.92,0.56
15:18:55.460,0.04,0.0,-56.92,0.56
15:18:55.467,0.04,0.0,-56.92,0.56
15:18:55.578,0.04,0.0,-56.92,0.56
15:18:55.587,0.04,0.0,-56.92,0.56
15:18:55.685,0.04,0.0,-56.92,0.56
15:18:55.692,0.04,0.0,-56.92,0.56
15:18:55.800,0.04,0.0,-56.92,0.56
15:18:55.803,0.04,0.0,-56.92,0.56
15:18:55.913,0.04,0.0,-56.92,0.56
15:18:55.916,0.04,0.0,-56.92,0.56
15:18:56.032,0.04,0.0,-56.92,0.56
15:18:56.037,0.04,0.0,-56.92,0.56
15:18:56.146,0.04,0.0,-56.92,0.56
15:18:56.150,0.04,0.0,-56.92,0.56
15:18:56.257,0.04,0.0,-56.92,0.56
15:18:56.261,0.04,0.0,-56.92,0.56
15:18:56.371,0.04,0.0,-56.92,0.56
15:18:56.374,0.04,0.0,-56.92,0.56
15:18:56.495,0.04,0.0,-56.92,0.56
15:18:56.505,0.04,0.0,-56.92,0.56
